{"version": 0.6, "generator": "Overpass API 0.7.62.11 87bfad18", "osm3s": {"timestamp_osm_base": "2026-05-16T20:31:15Z", "copyright": "The data included in this document is from www.openstreetmap.org. The data is made available under ODbL."}, "elements": [{"type": "node", "id": 4124063057, "lat": 9.2165066, "lon": 80.7686422, "tags": {"addr:city": "Mulliayawalai", "alt_name": "Mu/Thamil Vidyalayam", "alt_name:en": "Mulliyawalai Tamil Vidyalayam", "amenity": "school", "name": "Mu/Mulliyawalai Tamil Vidyalayam"}}, {"type": "node", "id": 4124063388, "lat": 9.2213071, "lon": 80.7679138, "tags": {"amenity": "school", "name": "Mu/Kalaimagal Vidyalayam"}}, {"type": "node", "id": 4124080131, "lat": 9.2158766, "lon": 80.7638854}, {"type": "node", "id": 4124080132, "lat": 9.2152445, "lon": 80.7650572}, {"type": "node", "id": 4124080133, "lat": 9.2164261, "lon": 80.7656757}, {"type": "node", "id": 4124080134, "lat": 9.2168823, "lon": 80.7648134}, {"type": "node", "id": 4395820979, "lat": 9.2208379, "lon": 80.7908592, "tags": {"amenity": "school", "name": "Mu/Thaneerootu HBTMS", "name:ta": "\u0bae\u0bc1/\u0ba4\u0ba3\u0bcd\u0ba3\u0bc0\u0bb0\u0bc2\u0bb1\u0bcd\u0bb1\u0bc1 \u0b87\u0ba8\u0bcd\u0ba4\u0bc1 \u0ba4\u0bae\u0bbf\u0bb4\u0bcd\u0b95\u0bcd \u0b95\u0bb2\u0bb5\u0ba9\u0bcd \u0baa\u0bbe\u0b9f\u0b9a\u0bbe\u0bb2\u0bc8"}}, {"type": "node", "id": 4395823869, "lat": 9.2258997, "lon": 80.7926418, "tags": {"amenity": "school", "name": "Mu/Thaneerootu Muslim Maha Vidyaalayam", "name:ta": "\u0bae\u0bc1/\u0ba4\u0ba3\u0bcd\u0ba3\u0bc0\u0bb0\u0bc2\u0bb1\u0bcd\u0bb1\u0bc1 \u0bae\u0bc1\u0bb8\u0bcd\u0bb2\u0bc0\u0bae\u0bcd \u0bae\u0b95\u0bbe \u0bb5\u0bbf\u0ba4\u0bcd\u0ba4\u0bbf\u0baf\u0bbe\u0bb2\u0baf\u0bae\u0bcd"}}, {"type": "node", "id": 4395825891, "lat": 9.240075, "lon": 80.822724, "tags": {"amenity": "school", "name": "Mu/Silawathai Tamil Vidyalayam", "name:ta": "\u0bae\u0bc1/\u0b9a\u0bbf\u0bb2\u0bbe\u0bb5\u0ba4\u0bcd\u0ba4\u0bc8 \u0ba4\u0bae\u0bbf\u0bb4\u0bcd \u0bb5\u0bbf\u0ba4\u0bcd\u0ba4\u0bbf\u0baf\u0bbe\u0bb2\u0baf\u0bae\u0bcd"}}, {"type": "node", "id": 4395827781, "lat": 9.2537035, "lon": 80.8174774, "tags": {"Census ID": "12020", "amenity": "school", "grades": "1 to 11", "name": "Mu/Mullaitivu R.C. Girls\u2019 School", "name:en": "Mullaitivu Roman Catholic Girls\u2019 School", "name:si": "\u0db8\u0dd4\u0dbd\u0dca\u0dbd\u0dba\u0dd2\u0da7\u0dd2\u0dc0\u0dca \u0dbb\u0ddd\u0db8\u0dcf\u0db1\u0dd4 \u0d9a\u0dad\u0ddd\u0dbd\u0dd2\u0d9a \u0db6\u0dcf\u0dbd\u0dd2\u0d9a\u0dcf \u0db4\u0dcf\u0dc3\u0dbd", "name:ta": "\u0bae\u0bc1/\u0bae\u0bc1\u0bb2\u0bcd\u0bb2\u0bc8\u0ba4\u0bcd\u0ba4\u0bc0\u0bb5\u0bc1 \u0b89\u0bb0\u0bcb\u0bae\u0ba9\u0bcd \u0b95\u0ba4\u0bcd\u0ba4\u0bcb\u0bb2\u0bbf\u0b95\u0bcd\u0b95\u0baa\u0bcd \u0baa\u0bc6\u0ba3\u0bcd\u0b95\u0bb3\u0bcd \u0baa\u0bbe\u0b9f\u0b9a\u0bbe\u0bb2\u0bc8", "old_name": "Mu/Mullaitivu RCTMS", "old_name:ta": "\u0bae\u0bc1/\u0bae\u0bc1\u0bb2\u0bcd\u0bb2\u0bc8\u0ba4\u0bcd\u0ba4\u0bc0\u0bb5\u0bc1 \u0bb1\u0bcb\u0ba4\u0b95 \u0baa\u0bbe\u0b9f\u0b9a\u0bbe\u0bb2\u0bc8", "phone": "+94212290474"}}, {"type": "node", "id": 4395853073, "lat": 9.2526774, "lon": 80.8215533, "tags": {"amenity": "school", "name": "Mu/Kallapadu GTMS", "name:ta": "\u0bae\u0bc1/\u0b95\u0bb3\u0bcd\u0bb3\u0baa\u0bcd\u0baa\u0bbe\u0b9f\u0bc1 \u0b85\u0ba4\u0b95 \u0baa\u0bbe\u0b9f\u0b9a\u0bbe\u0bb2\u0bc8"}}, {"type": "node", "id": 4417980259, "lat": 9.203175, "lon": 80.8300526, "tags": {"alt_name": "Uduppukulam Tamil Vidyalayam", "alt_name:ta": "\u0b89\u0b9f\u0bc1\u0baa\u0bcd\u0baa\u0bc1\u0b95\u0bcd\u0b95\u0bc1\u0bb3\u0bae\u0bcd \u0ba4\u0bae\u0bbf\u0bb4\u0bcd \u0bb5\u0bbf\u0ba4\u0bcd\u0ba4\u0bbf\u0baf\u0bbe\u0bb2\u0baf\u0bae\u0bcd", "amenity": "school", "name": "Mu/Uduppukulam Tamil Vidyalayam", "name:ta": "\u0bae\u0bc1/\u0b89\u0b9f\u0bc1\u0baa\u0bcd\u0baa\u0bc1\u0b95\u0bcd\u0b95\u0bc1\u0bb3\u0bae\u0bcd \u0ba4\u0bae\u0bbf\u0bb4\u0bcd \u0bb5\u0bbf\u0ba4\u0bcd\u0ba4\u0bbf\u0baf\u0bbe\u0bb2\u0baf\u0bae\u0bcd"}}, {"type": "node", "id": 4418624188, "lat": 9.2244222, "lon": 80.7779806, "tags": {"amenity": "school", "name": "Mu/Mulliyavalai RCTMS", "name:ta": "\u0bae\u0bc1/\u0bae\u0bc1\u0bb2\u0bcd\u0bb2\u0bc8\u0ba4\u0bcd\u0ba4\u0bc0\u0bb5\u0bc1 \u0bb1\u0bcb\u0b95\u0ba4\u0b95 \u0baa\u0bbe\u0b9f\u0b9a\u0bbe\u0bb2\u0bc8"}}, {"type": "node", "id": 4418624489, "lat": 9.2477768, "lon": 80.779045, "tags": {"amenity": "school", "name:ta": "\u0bae\u0bc1/\u0bb5\u0bb1\u0bcd\u0bb1\u0bbe\u0baa\u0bcd\u0baa\u0bb3\u0bc8 \u0bae\u0b95\u0bbe \u0bb5\u0bbf\u0ba4\u0bcd\u0ba4\u0bbf\u0baf\u0bbe\u0bb2\u0baf\u0bae\u0bcd"}}, {"type": "node", "id": 4419820321, "lat": 9.2646562, "lon": 80.8114018, "tags": {"amenity": "school", "name": "Mu/Hindu Vidyalayam", "name:ta": "\u0bae\u0bc1/\u0b87\u0ba8\u0bcd\u0ba4\u0bc1 \u0bb5\u0bbf\u0ba4\u0bcd\u0ba4\u0bbf\u0baf\u0bbe\u0bb2\u0baf\u0bae\u0bcd"}}, {"type": "node", "id": 4419821531, "lat": 9.2650544, "lon": 80.8095614, "tags": {"CensusID": "12001", "SchoolID": "1401001", "Type": "1AB", "addr:city": "Mullaitivu South", "addr:street": "Karachchikudiyiruppu", "alt_name": "Mullaitivu Maha Vidyalayam", "alt_name:ta": "\u0bae\u0bc1\u0bb2\u0bcd\u0bb2\u0bc8\u0ba4\u0bcd\u0ba4\u0bc0\u0bb5\u0bc1 \u0bae\u0b95\u0bbe \u0bb5\u0bbf\u0ba4\u0bcd\u0ba4\u0bbf\u0baf\u0bbe\u0bb2\u0baf\u0bae\u0bcd", "amenity": "school", "division": "Mullaitivu", "grades": "6 to 13", "name": "Mu/Mullaitivu Maha Vidyalayam", "name:ta": "\u0bae\u0bc1/\u0bae\u0bc1\u0bb2\u0bcd\u0bb2\u0bc8\u0ba4\u0bcd\u0ba4\u0bc0\u0bb5\u0bc1 \u0bae\u0b95\u0bbe \u0bb5\u0bbf\u0ba4\u0bcd\u0ba4\u0bbf\u0baf\u0bbe\u0bb2\u0baf\u0bae\u0bcd", "opening_hours": "Mo-Fr 07:30-13:30", "phone": "0212290056", "sex": "unisex", "source": "http://edudept.np.gov.lk/selectschooldetail.php", "zone": "Mullaitivu"}}, {"type": "node", "id": 4419823145, "lat": 9.2664369, "lon": 80.8175724, "tags": {"amenity": "school", "name": "Mu/Mullaitivu Muslim Vidyalayam", "name:ta": "\u0bae\u0bc1/\u0bae\u0bc1\u0bb2\u0bcd\u0bb2\u0bc8\u0ba4\u0bcd\u0ba4\u0bc0\u0bb5\u0bc1 \u0bae\u0bc1\u0bb8\u0bcd\u0bb2\u0bc0\u0bae\u0bcd \u0bb5\u0bbf\u0ba4\u0bcd\u0ba4\u0bbf\u0baf\u0bbe\u0bb2\u0baf\u0bae\u0bcd"}}, {"type": "node", "id": 4419830474, "lat": 9.2860798, "lon": 80.8058942, "tags": {"addr:city": "Mullaitivu", "addr:street": "Vedduwaikkal", "alt_name": "Mu/Vadduvahal GTMS", "alt_name:ta": "\u0bae\u0bc1/\u0bb5\u0bc6\u0b9f\u0bcd\u0b9f\u0bc1\u0bb5\u0bbe\u0baf\u0bcd\u0b95\u0bcd\u0b95\u0bbe\u0bb2\u0bcd \u0b85\u0ba4\u0b95 \u0baa\u0bbe\u0b9f\u0b9a\u0bbe\u0bb2\u0bc8", "amenity": "school", "grades": "1 - 9", "name": "Mu/Vedduvaikkal GTMS", "name:en": "Vedduvaikkal Government Tamil Mixed School", "name:si": "\u0dc0\u0dda\u0da7\u0dd4\u0dc0\u0dcf\u0dba\u0dd2\u0d9a\u0dcf\u0dbd\u0dca \u0dbb\u0da2\u0dba\u0dda \u0daf\u0dd9\u0db8\u0dc5 \u0db8\u0dd2\u0dc1\u0dca\u200d\u0dbb \u0db4\u0dcf\u0dc3\u0dbd", "name:ta": "\u0bb5\u0bc6\u0b9f\u0bcd\u0b9f\u0bc1\u0bb5\u0bbe\u0baf\u0bcd\u0b95\u0bcd\u0b95\u0bbe\u0bb2\u0bcd \u0b85\u0bb0\u0b9a\u0bbf\u0ba9\u0bb0\u0bcd \u0ba4\u0bae\u0bbf\u0bb4\u0bcd\u0b95\u0bcd \u0b95\u0bb2\u0bb5\u0ba9\u0bcd \u0baa\u0bbe\u0b9f\u0b9a\u0bbe\u0bb2\u0bc8", "phone": "+94243248686"}}, {"type": "node", "id": 4419887150, "lat": 9.1905221, "lon": 80.8144774, "tags": {"addr:city": "Kumarapuram", "amenity": "school", "grades": "1 to 5", "name": "Mu/Murippu Tamil Vidyalayam", "name:ta": "\u0bae\u0bc1/\u0bae\u0bc1\u0bb1\u0bbf\u0baa\u0bcd\u0baa\u0bc1 \u0ba4\u0bae\u0bbf\u0bb4\u0bcd \u0bb5\u0bbf\u0ba4\u0bcd\u0ba4\u0bbf\u0baf\u0bbe\u0bb2\u0baf\u0bae\u0bcd", "opening_hours": "Mo-Fr 07:30-12:30", "sex": "unisex"}}, {"type": "node", "id": 4419899323, "lat": 9.2584898, "lon": 80.7717974, "tags": {"addr:city": "Mulliyawalai", "addr:street": "Keppapilavu", "alt_name": "Mu/Kepapulavu GTMS", "amenity": "school", "grades": "1 to 5", "name": "Mu/Keppapilavu GTMS", "name:ta": "\u0bae\u0bc1/\u0b95\u0bc7\u0baa\u0bcd\u0baa\u0bbe\u0baa\u0bcd\u0baa\u0bc1\u0bb2\u0bb5\u0bc1 \u0b85\u0ba4\u0b95 \u0baa\u0bbe\u0b9f\u0b9a\u0bbe\u0bb2\u0bc8"}}, {"type": "node", "id": 4574621217, "lat": 9.2470796, "lon": 80.7793774}, {"type": "node", "id": 4574621218, "lat": 9.2476885, "lon": 80.7800963}, {"type": "node", "id": 4574621219, "lat": 9.2477705, "lon": 80.7785969}, {"type": "node", "id": 4574621220, "lat": 9.2479294, "lon": 80.7798495}, {"type": "node", "id": 4574621221, "lat": 9.2481915, "lon": 80.7800963}, {"type": "node", "id": 4574621222, "lat": 9.2482894, "lon": 80.7794043}, {"type": "node", "id": 4574621223, "lat": 9.2485515, "lon": 80.7797878}, {"type": "node", "id": 4695622010, "lat": 9.2230754, "lon": 80.792135, "tags": {"addr:city": "Thanneerootu", "addr:street": "Mankulam-Mullaitivu Road", "alt_name": "Thanniruttu CCTMS", "amenity": "school", "name": "Mu/Thanniruttu CCTMS", "name:ta": "\u0bae\u0bc1/\u0ba4\u0ba3\u0bcd\u0ba3\u0bc0\u0bb0\u0bc2\u0bb1\u0bcd\u0bb1\u0bc1 \u0b9a\u0bc0\u0b9a\u0bbf\u0ba4\u0b95 \u0baa\u0bbe\u0b9f\u0b9a\u0bbe\u0bb2\u0bc8"}}, {"type": "node", "id": 4789249382, "lat": 9.3192119, "lon": 80.7732113, "tags": {"alt_name": "Mulliwaikkal West Junior High School", "alt_name:ta": "\u0bae\u0bc1\u0bb3\u0bcd\u0bb3\u0bbf\u0bb5\u0bbe\u0baf\u0bcd\u0b95\u0bcd\u0b95\u0bbe\u0bb2\u0bcd \u0bae\u0bc7\u0bb1\u0bcd\u0b95\u0bc1 \u0b95\u0ba9\u0bbf\u0bb7\u0bcd\u0b9f \u0b89\u0baf\u0bb0\u0bcd\u0ba4\u0bb0 \u0bb5\u0bbf\u0ba4\u0bcd\u0ba4\u0bbf\u0baf\u0bbe\u0bb2\u0baf\u0bae\u0bcd", "amenity": "school", "name": "Mu/Mulliwaikkal West Junior High School", "name:ta": "\u0bae\u0bc1/\u0bae\u0bc1\u0bb3\u0bcd\u0bb3\u0bbf\u0bb5\u0bbe\u0baf\u0bcd\u0b95\u0bcd\u0b95\u0bbe\u0bb2\u0bcd \u0bae\u0bc7\u0bb1\u0bcd\u0b95\u0bc1 \u0b95\u0ba9\u0bbf\u0bb7\u0bcd\u0b9f \u0b89\u0baf\u0bb0\u0bcd\u0ba4\u0bb0 \u0bb5\u0bbf\u0ba4\u0bcd\u0ba4\u0bbf\u0baf\u0bbe\u0bb2\u0baf\u0bae\u0bcd"}}, {"type": "node", "id": 5135457292, "lat": 9.2469843, "lon": 80.7796007}, {"type": "node", "id": 5217467559, "lat": 9.2620317, "lon": 80.8135157}, {"type": "node", "id": 5217467560, "lat": 9.2621447, "lon": 80.8135391}, {"type": "node", "id": 5217467561, "lat": 9.2624777, "lon": 80.8135517}, {"type": "node", "id": 5217467562, "lat": 9.2624831, "lon": 80.8136429}, {"type": "node", "id": 5217467563, "lat": 9.2622792, "lon": 80.8141096}, {"type": "node", "id": 5217467564, "lat": 9.2619933, "lon": 80.8143268}, {"type": "node", "id": 5217467565, "lat": 9.2618107, "lon": 80.8144771}, {"type": "node", "id": 5217467568, "lat": 9.2612548, "lon": 80.8143559}, {"type": "node", "id": 5217467569, "lat": 9.2611511, "lon": 80.8142863}, {"type": "node", "id": 5217467570, "lat": 9.2611036, "lon": 80.8142346}, {"type": "node", "id": 5217467571, "lat": 9.26105, "lon": 80.8141536}, {"type": "node", "id": 5217467574, "lat": 9.2615924, "lon": 80.8132126}, {"type": "node", "id": 5217522053, "lat": 9.262487, "lon": 80.8139701}, {"type": "node", "id": 5240576564, "lat": 9.2615142, "lon": 80.8146769}, {"type": "node", "id": 5385060537, "lat": 9.236153, "lon": 80.7763211}, {"type": "node", "id": 5385060539, "lat": 9.2360842, "lon": 80.7764053}, {"type": "node", "id": 5385060540, "lat": 9.2360514, "lon": 80.7763778}, {"type": "node", "id": 5385060541, "lat": 9.2361202, "lon": 80.7762936}, {"type": "node", "id": 5385064612, "lat": 9.2374244, "lon": 80.7779826}, {"type": "node", "id": 5385064613, "lat": 9.2371889, "lon": 80.777936}, {"type": "node", "id": 5385064614, "lat": 9.2371683, "lon": 80.7780431}, {"type": "node", "id": 5385064615, "lat": 9.237403, "lon": 80.7781771}, {"type": "node", "id": 5385064616, "lat": 9.2373603, "lon": 80.7780561}, {"type": "node", "id": 5503562825, "lat": 9.3063122, "lon": 80.7852227, "tags": {"CensusID": "12038", "SchoolID": "1401026", "Zone": "Mullaitivu", "addr:city": "Mulliwaikkal", "alt_name": "Mullivakkal East GTMS", "alt_name:ta": "\u0bae\u0bc1\u0bb3\u0bcd\u0bb3\u0bbf\u0bb5\u0bbe\u0baf\u0bcd\u0b95\u0bcd\u0b95\u0bbe\u0bb2\u0bcd \u0b95\u0bbf\u0bb4\u0b95\u0bcd\u0b95\u0bc1 \u0b85\u0ba4\u0b95 \u0baa\u0bbe\u0b9f\u0b9a\u0bbe\u0bb2\u0bc8", "amenity": "school", "division": "Maritime Pattu", "grades": "1 to 5", "name": "Mu/Mullivakkal East GTMS", "name:ta": "\u0bae\u0bc1/\u0bae\u0bc1\u0bb3\u0bcd\u0bb3\u0bbf\u0bb5\u0bbe\u0baf\u0bcd\u0b95\u0bcd\u0b95\u0bbe\u0bb2\u0bcd \u0b95\u0bbf\u0bb4\u0b95\u0bcd\u0b95\u0bc1 \u0b85\u0ba4\u0b95 \u0baa\u0bbe\u0b9f\u0b9a\u0bbe\u0bb2\u0bc8", "opening_hours": "Mo-Fr 07:30-12:30", "sex": "unisex"}}, {"type": "node", "id": 5977813628, "lat": 9.2240619, "lon": 80.7827014}, {"type": "node", "id": 5977813629, "lat": 9.2240784, "lon": 80.7826046}, {"type": "node", "id": 5977813630, "lat": 9.2243453, "lon": 80.7827442}, {"type": "node", "id": 5977813631, "lat": 9.2243409, "lon": 80.7826497}, {"type": "node", "id": 5977813632, "lat": 9.2243684, "lon": 80.782671}, {"type": "node", "id": 5977813633, "lat": 9.2243517, "lon": 80.7825926}, {"type": "node", "id": 5977813634, "lat": 9.2243822, "lon": 80.7825979}, {"type": "node", "id": 5977813635, "lat": 9.224371, "lon": 80.7824745}, {"type": "node", "id": 5977813637, "lat": 9.2244157, "lon": 80.7824093}, {"type": "node", "id": 5977813638, "lat": 9.2240291, "lon": 80.782369}, {"type": "node", "id": 5977813639, "lat": 9.2241161, "lon": 80.7823843}, {"type": "node", "id": 5977813641, "lat": 9.2243444, "lon": 80.78275}, {"type": "node", "id": 5977813642, "lat": 9.2239744, "lon": 80.7826888}, {"type": "node", "id": 5977813643, "lat": 9.2240614, "lon": 80.7827041}, {"type": "node", "id": 5977813644, "lat": 9.2240452, "lon": 80.782263}, {"type": "node", "id": 5977813645, "lat": 9.2240271, "lon": 80.7823686}, {"type": "node", "id": 5977813646, "lat": 9.2243778, "lon": 80.7824305}, {"type": "node", "id": 5977813647, "lat": 9.2244069, "lon": 80.7826772}, {"type": "node", "id": 5977813648, "lat": 9.224395, "lon": 80.7827523}, {"type": "node", "id": 5977813649, "lat": 9.2244043, "lon": 80.7824801}, {"type": "node", "id": 5977813650, "lat": 9.2243959, "lon": 80.7823249}, {"type": "node", "id": 5977813651, "lat": 9.2244493, "lon": 80.7824157}, {"type": "node", "id": 5977813652, "lat": 9.2244638, "lon": 80.7823379}, {"type": "node", "id": 5977813653, "lat": 9.2242848, "lon": 80.7824596}, {"type": "node", "id": 5977813654, "lat": 9.2242649, "lon": 80.7825776}, {"type": "node", "id": 5977813655, "lat": 9.224399, "lon": 80.7826008}, {"type": "node", "id": 5977813656, "lat": 9.2244188, "lon": 80.7824828}, {"type": "node", "id": 6007847006, "lat": 9.2232792, "lon": 80.7823148, "tags": {"amenity": "school", "name": "Mu/Vidyanatha College", "name:en": "Vidyanatha College", "name:ta": "\u0bb5\u0bbf\u0ba4\u0bcd\u0ba4\u0bbf\u0baf\u0bbe\u0ba9\u0ba8\u0bcd\u0ba4\u0b95\u0bcd \u0b95\u0bb2\u0bcd\u0bb2\u0bc2\u0bb0\u0bbf"}}, {"type": "node", "id": 6779468611, "lat": 9.2227953, "lon": 80.8012702, "tags": {"addr:city": "Mulliyawalai", "addr:street": "Poothanvayal", "amenity": "school", "grades": "1 to 5", "name": "Mu/Thannimurippu GTMS", "name:en": "Thannimurippu Government Tamil Mixed School", "name:si": "\u0dad\u0db1\u0dca\u0db1\u0dd2\u0db8\u0dd4\u0dbb\u0dd2\u0db4\u0dca\u0db4\u0dd4 \u0dbb\u0da2\u0dba\u0dda \u0daf\u0dd9\u0db8\u0dc5 \u0db8\u0dd2\u0dc1\u0dca\u200d\u0dbb \u0db4\u0dcf\u0dc3\u0dbd", "name:ta": "\u0ba4\u0ba3\u0bcd\u0ba3\u0bbf\u0bae\u0bc1\u0bb1\u0bbf\u0baa\u0bcd\u0baa\u0bc1 \u0b85\u0bb0\u0b9a\u0bbf\u0ba9\u0bb0\u0bcd \u0ba4\u0bae\u0bbf\u0bb4\u0bcd\u0b95\u0bcd \u0b95\u0bb2\u0bb5\u0ba9\u0bcd \u0baa\u0bbe\u0b9f\u0b9a\u0bbe\u0bb2\u0bc8"}}, {"type": "node", "id": 7062872931, "lat": 9.3250811, "lon": 80.7599469, "tags": {"highway": "bus_stop", "public_transport": "stop_area"}}, {"type": "node", "id": 7062872940, "lat": 9.3256058, "lon": 80.7587332, "tags": {"highway": "bus_stop", "public_transport": "stop_area"}}, {"type": "node", "id": 7063393794, "lat": 9.3196049, "lon": 80.7700749, "tags": {"highway": "bus_stop", "public_transport": "stop_area"}}, {"type": "node", "id": 7063393796, "lat": 9.3194699, "lon": 80.7709265, "tags": {"highway": "bus_stop", "public_transport": "stop_area"}}, {"type": "node", "id": 7064314386, "lat": 9.3163784, "lon": 80.7748774, "tags": {"highway": "bus_stop", "public_transport": "stop_area"}}, {"type": "node", "id": 7064314392, "lat": 9.3169607, "lon": 80.7742833, "tags": {"highway": "bus_stop", "public_transport": "stop_area"}}, {"type": "node", "id": 7064314400, "lat": 9.318212, "lon": 80.7731165, "tags": {"highway": "bus_stop", "public_transport": "stop_area"}}, {"type": "node", "id": 7064314407, "lat": 9.318967, "lon": 80.7723128, "tags": {"highway": "bus_stop", "public_transport": "stop_area"}}, {"type": "node", "id": 7066185332, "lat": 9.3050379, "lon": 80.7851462, "tags": {"highway": "bus_stop", "public_transport": "stop_area"}}, {"type": "node", "id": 7066185337, "lat": 9.3057109, "lon": 80.7846332, "tags": {"highway": "bus_stop", "public_transport": "stop_area"}}, {"type": "node", "id": 7066185346, "lat": 9.3071773, "lon": 80.783618, "tags": {"highway": "bus_stop", "public_transport": "stop_area"}}, {"type": "node", "id": 7066185354, "lat": 9.3078939, "lon": 80.7828301, "tags": {"highway": "bus_stop", "public_transport": "stop_area"}}, {"type": "node", "id": 7066754464, "lat": 9.3016379, "lon": 80.7868735, "tags": {"highway": "bus_stop", "public_transport": "stop_area"}}, {"type": "node", "id": 7066754466, "lat": 9.3007611, "lon": 80.7873175, "tags": {"highway": "bus_stop", "public_transport": "stop_area"}}, {"type": "node", "id": 7222265182, "lat": 9.236999, "lon": 80.8116759, "tags": {"highway": "bus_stop", "public_transport": "stop_area"}}, {"type": "node", "id": 7222333886, "lat": 9.2362107, "lon": 80.8118516, "tags": {"highway": "bus_stop", "public_transport": "stop_area"}}, {"type": "node", "id": 7223067558, "lat": 9.2611175, "lon": 80.8139417, "tags": {"highway": "bus_stop", "public_transport": "stop_area"}}, {"type": "node", "id": 7223067560, "lat": 9.2614981, "lon": 80.8131156, "tags": {"highway": "bus_stop", "public_transport": "stop_area"}}, {"type": "node", "id": 7781188413, "lat": 9.2866579, "lon": 80.8015278, "tags": {"highway": "bus_stop"}}, {"type": "node", "id": 7781188415, "lat": 9.2858334, "lon": 80.801395, "tags": {"highway": "bus_stop", "public_transport": "stop_area"}}, {"type": "node", "id": 7781188420, "lat": 9.2770999, "lon": 80.8061398, "tags": {"highway": "bus_stop", "public_transport": "stop_area"}}, {"type": "node", "id": 7781188423, "lat": 9.276644, "lon": 80.8067125, "tags": {"highway": "bus_stop", "public_transport": "stop_area"}}, {"type": "node", "id": 7781188427, "lat": 9.2688719, "lon": 80.8116639, "tags": {"highway": "bus_stop", "public_transport": "stop_area"}}, {"type": "node", "id": 7781188428, "lat": 9.2698566, "lon": 80.8107928, "tags": {"highway": "bus_stop", "public_transport": "stop_area"}}, {"type": "way", "id": 410602077, "nodes": [4124080131, 4124080132, 4124080133, 4124080134, 4124080131], "tags": {"amenity": "school", "name": "Play Grounds"}}, {"type": "way", "id": 462042965, "nodes": [4574621219, 4574621222, 4574621223, 4574621221, 4574621220, 4574621218, 5135457292, 4574621217, 4574621219], "tags": {"amenity": "school", "name": "Mu/Vattapalai Maha Vidyalayam"}}, {"type": "way", "id": 539156951, "nodes": [5217467559, 5217467560, 5217467561, 5217467562, 5217522053, 5217467563, 5217467564, 5217467565, 5240576564, 5217467568, 5217467569, 5217467570, 5217467571, 5217467574, 5217467559], "tags": {"addr:city": "Mullaitivu", "addr:street": "Mullaitivu-Kokilai Road", "amenity": "hospital", "healthcare": "hospital", "name": "Mullaitivu Divisional Hosprel", "operator": "Tharsi"}}, {"type": "way", "id": 558414425, "nodes": [5385060537, 5385060539, 5385060540, 5385060541, 5385060537], "tags": {"amenity": "school", "name": "Vannamathi Ground"}}, {"type": "way", "id": 558415128, "nodes": [5385064612, 5385064613, 5385064614, 5385064615, 5385064616, 5385064612], "tags": {"amenity": "school", "building": "yes"}}, {"type": "way", "id": 633241708, "nodes": [5977813629, 5977813631, 5977813633, 5977813654, 5977813653, 5977813635, 5977813646, 5977813639, 5977813629]}, {"type": "way", "id": 633241710, "nodes": [5977813630, 5977813641, 5977813628, 5977813643, 5977813642, 5977813638, 5977813645, 5977813644, 5977813650, 5977813652, 5977813651, 5977813637, 5977813649, 5977813656, 5977813655, 5977813634, 5977813632, 5977813647, 5977813648, 5977813630]}, {"type": "relation", "id": 8804635, "members": [{"type": "way", "ref": 633241708, "role": "inner"}, {"type": "way", "ref": 633241710, "role": "outer"}], "tags": {"addr:city": "Mulliyawalai", "addr:street": "Mankulam - Mullaitivu", "amenity": "school", "building": "yes", "education": "school", "email": "muvidyananda@gmail.com", "grades": "6-13", "name": "Mu/Vidyanatha College", "operator": "Government", "operator:type": "public/government", "religion": "hindu", "type": "multipolygon"}}]}