{"version": 0.6, "generator": "Overpass API 0.7.62.11 87bfad18", "osm3s": {"timestamp_osm_base": "2026-05-16T20:31:15Z", "copyright": "The data included in this document is from www.openstreetmap.org. The data is made available under ODbL."}, "elements": [{"type": "node", "id": 1728791455, "lat": 8.7502763, "lon": 80.4973099, "tags": {"amenity": "school", "name": "V/Vavuniya Tamil Maha Vidyalayam", "short_name": "Vavuniya Tamil Maha Vidyalayam"}}, {"type": "node", "id": 1728839002, "lat": 8.758407, "lon": 80.4571491, "tags": {"amenity": "school", "name": "V/Nelukkulam Kalaimagal Maha Vidyalayam", "name:ta": "\u0ba8\u0bc6\u0bb2\u0bc1\u0b95\u0bcd\u0b95\u0bc1\u0bb3\u0bae\u0bcd \u0b95\u0bb2\u0bc8\u0bae\u0b95\u0bb3\u0bcd \u0bae\u0b95\u0bbe \u0bb5\u0bbf\u0ba4\u0bcd\u0ba4\u0bbf\u0baf\u0bbe\u0bb2\u0baf\u0bae\u0bcd"}}, {"type": "node", "id": 1731400280, "lat": 8.757129, "lon": 80.4828339, "tags": {"amenity": "school", "name": "V/Vipulananda College", "short_name": "Vipulananda College"}}, {"type": "node", "id": 1810893231, "lat": 8.7633728, "lon": 80.4880549}, {"type": "node", "id": 1810893234, "lat": 8.7637582, "lon": 80.4884034}, {"type": "node", "id": 1810893236, "lat": 8.7638126, "lon": 80.4883052}, {"type": "node", "id": 1810893238, "lat": 8.7637513, "lon": 80.4882348}, {"type": "node", "id": 2375504462, "lat": 8.7633029, "lon": 80.4882047}, {"type": "node", "id": 2408669944, "lat": 8.7703782, "lon": 80.5053805, "tags": {"alt_name": "Poonthoddam Maha Vidyalayam", "amenity": "school", "name": "V/Poonthoddam Maha Vidyalayam"}}, {"type": "node", "id": 2410567584, "lat": 8.7515657, "lon": 80.5032608, "tags": {"amenity": "school", "name": "V/Rambaikulam Girls' Maha Vidyalayam", "short_name": "Rambaikulam Girls' Maha Vidyalayam", "wikidata": "Q7289176", "wikipedia": "en:Rambaikulam Girls' Maha Vidyalayam"}}, {"type": "node", "id": 2410576900, "lat": 8.7483331, "lon": 80.4940509, "tags": {"amenity": "hospital", "name": "Abisha Hospital"}}, {"type": "node", "id": 2410610897, "lat": 8.76347, "lon": 80.4824906, "tags": {"amenity": "school", "name": "V/Muslim Maha Vidyalayam", "short_name": "Vavuniya Muslim Maha Vidyalayam", "wikidata": "Q7917517", "wikipedia": "en:Vavuniya Muslim Maha Vidyalayam"}}, {"type": "node", "id": 2418592018, "lat": 8.7576894, "lon": 80.4953027}, {"type": "node", "id": 2418592020, "lat": 8.7586347, "lon": 80.4967546}, {"type": "node", "id": 2418592021, "lat": 8.7573236, "lon": 80.4966491}, {"type": "node", "id": 2418592022, "lat": 8.7587445, "lon": 80.4953188}, {"type": "node", "id": 2418592024, "lat": 8.7578644, "lon": 80.4953349}, {"type": "node", "id": 3551683229, "lat": 8.8629166, "lon": 80.5025393, "tags": {"amenity": "school", "name": "V/Omantai Central College"}}, {"type": "node", "id": 3553436024, "lat": 8.8193348, "lon": 80.4924738, "tags": {"alt_name": "Nochchimoddai JSV", "amenity": "school", "name": "V/Nochchimoddai JSV"}}, {"type": "node", "id": 3642953429, "lat": 8.7626392, "lon": 80.4643473, "tags": {"highway": "bus_stop", "name": "Kulumaddu Junction"}}, {"type": "node", "id": 3683075821, "lat": 9.1694467, "lon": 80.4265975, "tags": {"highway": "bus_stop", "public_transport": "stop_area"}}, {"type": "node", "id": 3683075999, "lat": 9.1188282, "lon": 80.4519019, "tags": {"highway": "bus_stop", "public_transport": "stop_area"}}, {"type": "node", "id": 3683076721, "lat": 9.14577, "lon": 80.4385837, "tags": {"highway": "bus_stop", "public_transport": "stop_area"}}, {"type": "node", "id": 3683078139, "lat": 9.1392874, "lon": 80.441823, "tags": {"highway": "bus_stop", "public_transport": "stop_area"}}, {"type": "node", "id": 3683078479, "lat": 9.0956099, "lon": 80.4650866, "tags": {"highway": "bus_stop", "public_transport": "stop_area"}}, {"type": "node", "id": 3683081873, "lat": 9.0875133, "lon": 80.4745935, "tags": {"highway": "bus_stop", "public_transport": "stop_area"}}, {"type": "node", "id": 3683083476, "lat": 9.0608609, "lon": 80.5057587, "tags": {"highway": "bus_stop", "public_transport": "stop_area"}}, {"type": "node", "id": 3683087474, "lat": 9.0686721, "lon": 80.4966303, "tags": {"highway": "bus_stop", "public_transport": "stop_area"}}, {"type": "node", "id": 3683092814, "lat": 9.0556278, "lon": 80.5112155, "tags": {"highway": "bus_stop", "public_transport": "stop_area"}}, {"type": "node", "id": 3683099389, "lat": 9.0322582, "lon": 80.5223507, "tags": {"highway": "bus_stop", "public_transport": "platform"}}, {"type": "node", "id": 3765219866, "lat": 8.7524912, "lon": 80.3671949, "tags": {"amenity": "hospital", "name": "Poovarasankulam Divisional Hospital"}}, {"type": "node", "id": 3765460434, "lat": 8.7448773, "lon": 80.5089095}, {"type": "node", "id": 3765460435, "lat": 8.7447553, "lon": 80.5085366}, {"type": "node", "id": 3765460436, "lat": 8.7449754, "lon": 80.5086037}, {"type": "node", "id": 3765460437, "lat": 8.7446522, "lon": 80.508821}, {"type": "node", "id": 3765630970, "lat": 8.7748542, "lon": 80.4860222, "tags": {"amenity": "school", "name": "School of Agriculture Vavuniya", "old_name": "Farm School"}}, {"type": "node", "id": 3868535725, "lat": 9.058707, "lon": 80.6578568, "tags": {"amenity": "school", "name": "V/Nedunkerny Maha Vidyalayam", "short_name": "Nedunkerny Maha Vidyalayam"}}, {"type": "node", "id": 3868552786, "lat": 9.0328648, "lon": 80.6666839, "tags": {"amenity": "school", "name": "V/Olumadhu GTMS"}}, {"type": "node", "id": 3868579917, "lat": 8.9717052, "lon": 80.5271469, "tags": {"amenity": "school", "name": "V/Puliyankulam Hindu College", "short_name": "Puliyankulam Hindu College"}}, {"type": "node", "id": 3916081889, "lat": 8.745337, "lon": 80.4679947, "tags": {"addr:city": "Koomankulam", "amenity": "school", "name": "V/Sithivinayagar School"}}, {"type": "node", "id": 3921459133, "lat": 8.7555397, "lon": 80.3869456, "tags": {"amenity": "school", "name": "V/Al Akshaya Muslim Maha Vidyalayam", "short_name": "Al Akshaya Muslim Maha Vidyalayam"}}, {"type": "node", "id": 3922926474, "lat": 8.8108475, "lon": 80.4622981}, {"type": "node", "id": 3922926475, "lat": 8.8108873, "lon": 80.4626253}, {"type": "node", "id": 3922926476, "lat": 8.810927, "lon": 80.4622846}, {"type": "node", "id": 3922926477, "lat": 8.8109698, "lon": 80.4626155}, {"type": "node", "id": 3926546898, "lat": 8.7449914, "lon": 80.4855126}, {"type": "node", "id": 3926546899, "lat": 8.7450533, "lon": 80.4855349}, {"type": "node", "id": 3926546900, "lat": 8.744961, "lon": 80.4856224}, {"type": "node", "id": 3926546901, "lat": 8.7450131, "lon": 80.4856458}, {"type": "node", "id": 3926600649, "lat": 9.1280175, "lon": 80.4470247, "tags": {"amenity": "hospital", "name": "Mankulam Base Hospital", "operator": "Ministry of Health"}}, {"type": "node", "id": 3926842867, "lat": 8.9646044, "lon": 80.5258698, "tags": {"addr:city": "Puliyankulam", "addr:district": "Vauniya", "amenity": "hospital", "dispensing": "yes", "name": "Puliyankulam Divisional Hospital"}}, {"type": "node", "id": 3926876378, "lat": 8.9406341, "lon": 80.5182381, "tags": {"amenity": "school", "name": "V/Thaninayagam Adikalar Vidyalayam", "name:ta": "\u0ba4\u0ba9\u0bbf\u0ba8\u0bbe\u0baf\u0b95\u0bae\u0bcd \u0b85\u0b9f\u0bbf\u0b95\u0bb3\u0bbe\u0bb0\u0bcd \u0bb5\u0bbf\u0ba4\u0bcd\u0ba4\u0bbf\u0baf\u0bbe\u0bb2\u0baf\u0bae\u0bcd", "short_name": "Thaninayagam Adikalar Vidyalayam"}}, {"type": "node", "id": 3926880521, "lat": 9.0537012, "lon": 80.6528729, "tags": {"addr:city": "Vavuniya", "addr:province": "Northern", "addr:suburb": "Nedunkerny", "amenity": "hospital", "emergency": "yes", "name": "Divisional Hospital - Nedunkerny", "name:ta": "\u0baa\u0bbf\u0bb0\u0ba4\u0bc7\u0b9a \u0bb5\u0bc8\u0ba4\u0bcd\u0ba4\u0bbf\u0baf\u0b9a\u0bbe\u0bb2\u0bc8 - \u0ba8\u0bc6\u0b9f\u0bc1\u0b99\u0bcd\u0b95\u0bc7\u0ba3\u0bbf"}}, {"type": "node", "id": 3927991976, "lat": 9.0781592, "lon": 80.6137459, "tags": {"amenity": "school", "name": "V/Kulavisuddan GTMS"}}, {"type": "node", "id": 3928036648, "lat": 8.7653005, "lon": 80.433486, "tags": {"amenity": "school", "name": "V/Katpahapuram GTMS", "short_name": "Katpahapuram GTMS"}}, {"type": "node", "id": 3928191766, "lat": 8.7512983, "lon": 80.4649389, "tags": {"bus": "yes", "highway": "bus_stop", "public_transport": "platform"}}, {"type": "node", "id": 3928191767, "lat": 8.7513039, "lon": 80.4648716}, {"type": "node", "id": 3928191768, "lat": 8.7512381, "lon": 80.4648834}, {"type": "node", "id": 3928208095, "lat": 8.8094765, "lon": 80.4637422, "tags": {"alt_name": "Puthukulam Maha Vidyalayam", "amenity": "school", "name": "V/Puthukulam Maha Vidyalayam"}}, {"type": "node", "id": 3929888505, "lat": 8.745639, "lon": 80.3829684, "tags": {"amenity": "school", "name": "V/Thalikkulam GTMS", "short_name": "Thalikkulam GTMS"}}, {"type": "node", "id": 3929943338, "lat": 8.8300539, "lon": 80.4055848, "tags": {"addr:city": "Maravankulam, Sasthirikoolankulam, Vavuniya", "alt_name": "Bharathithasan Vidyalayam", "amenity": "school", "name": "V/Bharathithasan Vidyalayam"}}, {"type": "node", "id": 3929949621, "lat": 8.8063162, "lon": 80.4509788, "tags": {"amenity": "school", "name": "V/Suntharapuram GTMS"}}, {"type": "node", "id": 3929956577, "lat": 8.8640211, "lon": 80.4178674, "tags": {"addr:city": "Kothandarnochchikkulam", "amenity": "school", "name": "V/Kothandarnochchikkulam GTMS", "name:ta": "\u0bb5/\u0b95\u0bcb\u0ba4\u0bbe\u0ba3\u0bcd\u0b9f\u0bb0\u0bcd \u0ba8\u0bca\u0b9a\u0bcd\u0b9a\u0bbf\u0b95\u0bcd\u0b95\u0bc1\u0bb3\u0bae\u0bcd \u0b85\u0ba4\u0b95 \u0baa\u0bbe\u0b9f\u0b9a\u0bbe\u0bb2\u0bc8"}}, {"type": "node", "id": 3931996584, "lat": 8.7605684, "lon": 80.4388746, "tags": {"amenity": "hospital", "emergency": "no", "name": "Auyuvedic Hospital Vavuniya "}}, {"type": "node", "id": 3932363899, "lat": 8.7527044, "lon": 80.3661007, "tags": {"alt_name": "Poovarasu Primary School", "alt_name:ta": "\u0baa\u0bc2\u0bb5\u0bb0\u0b9a\u0bc1 \u0b86\u0bb0\u0bae\u0bcd\u0baa \u0baa\u0bbe\u0b9f\u0b9a\u0bbe\u0bb2\u0bc8", "amenity": "school", "historic_name": "Poovasarsankulam Junior School", "name": "V/Poovarasu Primary School", "name:ta": "\u0bb5/\u0baa\u0bc2\u0bb5\u0bb0\u0b9a\u0bc1 \u0b86\u0bb0\u0bae\u0bcd\u0baa \u0baa\u0bbe\u0b9f\u0b9a\u0bbe\u0bb2\u0bc8"}}, {"type": "node", "id": 3933324754, "lat": 8.7511391, "lon": 80.3376452}, {"type": "node", "id": 3933324755, "lat": 8.7510274, "lon": 80.3378596}, {"type": "node", "id": 3936126823, "lat": 8.9889707, "lon": 80.5943291, "tags": {"amenity": "school", "name": "V/Vigneswara Maha Vidyalayam", "name:ta": "\u0bb5\u0bbf\u0b95\u0bcd\u0ba9\u0bc7\u0bb8\u0bcd\u0bb5\u0bb0\u0bbe \u0bae\u0b95\u0bbe \u0bb5\u0bbf\u0ba4\u0bcd\u0ba4\u0bbf\u0baf\u0bbe\u0bb2\u0baf\u0bae\u0bcd", "short_name": "Vigneswara Maha Vidyalayam"}}, {"type": "node", "id": 3939218646, "lat": 9.0037651, "lon": 80.5711031, "tags": {"alt_name": "Mathiyaamadu Vevekantha Vidyalayam", "amenity": "school", "name": "V/Mathiyamadhu Vevekanatha Vidyalayam", "name:ta": "\u0bb5/\u0bae\u0ba4\u0bbf\u0baf\u0bbe\u0bae\u0b9f\u0bc1 \u0bb5\u0bbf\u0bb5\u0bc7\u0b95\u0bbe\u0ba9\u0ba8\u0bcd\u0ba4 \u0bb5\u0bbf\u0ba4\u0bcd\u0ba4\u0bbf\u0baf\u0bbe\u0bb2\u0baf\u0bae\u0bcd"}}, {"type": "node", "id": 3939362091, "lat": 9.0504824, "lon": 80.5145367, "tags": {"alt_name": "Kangarayankulam Maha Vidalayam", "amenity": "school", "int_name": "Kanakarayankulam Mahaa Vidyaalayam", "name": "V/Kanakarayankulam Maha Vidyalayam", "name:si": "\u0dc0/\u0d9a\u0db1\u0d9a\u0dbb\u0dcf\u0dba\u0db1\u0dca\u0d9a\u0dd4\u0dbd\u0db8\u0dca \u0db8\u0d9a\u0dcf \u0dc0\u0dd2\u0dad\u0dca\u0dad\u0dd2\u0dba\u0dcf\u0dbd\u0dba\u0db8\u0dca", "name:ta": "\u0bb5/\u0b95\u0ba9\u0b95\u0bb0\u0bbe\u0baf\u0ba9\u0bcd\u0b95\u0bc1\u0bb3\u0bae\u0bcd \u0bae\u0b95\u0bbe \u0bb5\u0bbf\u0ba4\u0bcd\u0ba4\u0bbf\u0baf\u0bbe\u0bb2\u0baf\u0bae\u0bcd"}}, {"type": "node", "id": 3939675378, "lat": 8.8329048, "lon": 80.3527459, "tags": {"amenity": "school", "name": "V/Kovilpuliyankulam School", "short_name": "Kovilpuliyankulam School"}}, {"type": "node", "id": 3939712411, "lat": 8.8525571, "lon": 80.3612405, "tags": {"amenity": "school", "name": "Mn/Iranaiillupaikulam GTMS", "name:ta": "\u0bae\u0ba9\u0bcd/\u0b87\u0bb0\u0ba3\u0bc8\u0b87\u0bb2\u0bc1\u0baa\u0bcd\u0baa\u0bc8\u0b95\u0bcd\u0b95\u0bc1\u0bb3\u0bae\u0bcd \u0b85\u0ba4\u0b95 \u0baa\u0bbe\u0b9f\u0b9a\u0bbe\u0bb2\u0bc8"}}, {"type": "node", "id": 3939883175, "lat": 8.7975044, "lon": 80.4711309, "tags": {"alt_name": "Marukkarampalai GTMS", "amenity": "school", "name": "V/Marukkarampalai GTMS"}}, {"type": "node", "id": 3943037887, "lat": 8.7514026, "lon": 80.3381069, "tags": {"alt_name": "Kurukkalputhukulam GTMS", "alt_name:ta": "\u0b95\u0bc1\u0bb0\u0bc1\u0b95\u0bcd\u0b95\u0bb3\u0bcd\u0baa\u0bc1\u0ba4\u0bc1\u0b95\u0bcd\u0b95\u0bc1\u0bb3\u0bae\u0bcd \u0b85\u0ba4\u0b95 \u0baa\u0bbe\u0b9f\u0b9a\u0bbe\u0bb2\u0bc8", "amenity": "school", "historic": "Kurukkaloor GTMS", "name": "V/Kurukkalputhukulam GTMS", "name:ta": "\u0bb5/\u0b95\u0bc1\u0bb0\u0bc1\u0b95\u0bcd\u0b95\u0bb3\u0bcd\u0baa\u0bc1\u0ba4\u0bc1\u0b95\u0bcd\u0b95\u0bc1\u0bb3\u0bae\u0bcd \u0b85\u0ba4\u0b95 \u0baa\u0bbe\u0b9f\u0b9a\u0bbe\u0bb2\u0bc8"}}, {"type": "node", "id": 3945194340, "lat": 8.8251379, "lon": 80.4932656, "tags": {"highway": "bus_stop"}}, {"type": "node", "id": 3952966964, "lat": 8.9178055, "lon": 80.5110798, "tags": {"amenity": "school", "name": "V/Panrikeithakulam GTMS", "short_name": "Panrikeithakulam GTMS"}}, {"type": "node", "id": 3956911227, "lat": 9.0221369, "lon": 80.5907143}, {"type": "node", "id": 3956911228, "lat": 9.0221899, "lon": 80.5907626}, {"type": "node", "id": 3956911229, "lat": 9.0220654, "lon": 80.5906848}, {"type": "node", "id": 3956911230, "lat": 9.0220425, "lon": 80.5906277}, {"type": "node", "id": 3956911231, "lat": 9.022114, "lon": 80.5907323}, {"type": "node", "id": 3956911232, "lat": 9.0221078, "lon": 80.5905507}, {"type": "node", "id": 3956911233, "lat": 9.0220875, "lon": 80.5906625}, {"type": "node", "id": 3956911234, "lat": 9.0222535, "lon": 80.5906902}, {"type": "node", "id": 3956915090, "lat": 9.0228001, "lon": 80.5922665, "tags": {"amenity": "school", "name": "V/Nainamadu GTMS", "name:ta": "\u0ba8\u0baf\u0bbf\u0ba9\u0bbe\u0bae\u0b9f\u0bc1 \u0b85\u0ba4\u0b95 \u0baa\u0bbe\u0b9f\u0b9a\u0bbe\u0bb2\u0bc8", "short_name": "Nainamadu GTMS"}}, {"type": "node", "id": 3959015604, "lat": 9.088499, "lon": 80.4738854, "tags": {"addr:city": "Kollarpuliyankulam, Mannakulam", "addr:street": "Jaffna Kandy High Way (A9)", "amenity": "school", "name": "V/Sri Ramakrishna Vidyalayam", "name:si": "\u0dc0/\u0dc1\u0dca\u200d\u0dbb\u0dd2 \u0dbb\u0dcf\u0db8 \u0d9a\u0dd2\u0dbb\u0dd4\u0dc1\u0dca\u0dab\u0dbb\u0dca \u0dc0\u0dd2\u0da9\u0dca\u0dba\u0dcf\u0dbd\u0dba\u0db8\u0dca", "name:ta": "\u0bb5/\u0bb8\u0bcd\u0bb0\u0bc0 \u0bb0\u0bbe\u0bae\u0b95\u0bbf\u0bb0\u0bc1\u0bb7\u0bcd\u0ba3\u0bb0\u0bcd \u0bb5\u0bbf\u0ba4\u0bcd\u0ba4\u0bbf\u0baf\u0bbe\u0bb2\u0baf\u0bae\u0bcd"}}, {"type": "node", "id": 3959019542, "lat": 9.0728648, "lon": 80.4920734, "tags": {"alt_name": "Periyakulam GTM School", "amenity": "school", "name": "V/Periyakulam GTMS", "name:si": "\u0dc0/\u0db4\u0dd9\u0dbb\u0dd2\u0dba\u0d9a\u0dd4\u0dbd\u0db8\u0dca \u0dbb.\u0dad\u0dd9.\u0db8\u0dca \u0db4\u0dcf\u0dc3\u0dbd", "name:ta": "\u0bb5/\u0baa\u0bc6\u0bb0\u0bbf\u0baf\u0b95\u0bc1\u0bb3\u0bae\u0bcd \u0b85\u0ba4\u0b95 \u0baa\u0bbe\u0b9f\u0b9a\u0bbe\u0bb2\u0bc8"}}, {"type": "node", "id": 3984223132, "lat": 8.8455152, "lon": 80.3917615, "tags": {"addr:city": "Kalmadu, Vavuniya", "amenity": "school", "name": "V/Kalmadu Maha Vidyalayam"}}, {"type": "node", "id": 3984229853, "lat": 8.8255499, "lon": 80.429747, "tags": {"addr:city": "Tharanikkulam, Sasthirikoolankulam", "amenity": "school", "name": "V/Tharanikkulam Ganesh Vidyalayam", "website": "http://www.vtganeshv.sch.lk/web/wordpress/"}}, {"type": "node", "id": 3996601764, "lat": 9.0116731, "lon": 80.5254642, "tags": {"amenity": "school", "name": "V/Puthoor GTMS", "name:si": "\u0dc0/\u0db4\u0dd4\u0dad\u0dd6\u0dbb\u0dca \u0dbb.\u0dad\u0dd9.\u0db8\u0dca \u0db4\u0dcf\u0dc3\u0dbd", "name:ta": "\u0bb5/\u0baa\u0bc1\u0ba4\u0bc2\u0bb0\u0bcd \u0b85\u0ba4\u0b95 \u0baa\u0bbe\u0b9f\u0b9a\u0bbe\u0bb2\u0bc8"}}, {"type": "node", "id": 4036012568, "lat": 9.1351783, "lon": 80.4440558, "tags": {"amenity": "school", "name": "Mu/Mankulam Maha Vidyalayam", "name:ta": "\u0bae\u0bc1/\u0bae\u0bbe\u0b99\u0bcd\u0b95\u0bc1\u0bb3\u0bae\u0bcd \u0bae\u0b95\u0bbe \u0bb5\u0bbf\u0ba4\u0bcd\u0ba4\u0bbf\u0baf\u0bbe\u0bb2\u0baf\u0bae\u0bcd"}}, {"type": "node", "id": 4040555783, "lat": 8.9558876, "lon": 80.5444922, "tags": {"alt_name": "Playavadi GTMS", "amenity": "school", "int_name": "Palayavaadi GTMS", "name": "V/Palayawady GTMS", "name:ta": "\u0bb5/\u0baa\u0bb4\u0bc8\u0baf\u0bb5\u0bbe\u0b9f\u0bbf \u0b85\u0ba4\u0b95 \u0baa\u0bbe\u0b9f\u0b9a\u0bbe\u0bb2\u0bc8", "old_name": "Palayawadi GTMS", "short_name": "Palayawady G.T.M.S"}}, {"type": "node", "id": 4042856206, "lat": 9.0622547, "lon": 80.5341884, "tags": {"addr:city": "Vignanakulam, Kanagarayankulam", "amenity": "school", "name": "V/Navaratnam Vidyalayam"}}, {"type": "node", "id": 4056734179, "lat": 9.0737144, "lon": 80.4592481, "tags": {"addr:city": "Mannakulam", "amenity": "school", "name": "V/Mannakulam GTMS", "name:si": "\u0dc0/\u0db8\u0db1\u0dca\u0db1\u0d9a\u0dd4\u0dbd\u0db8\u0dca \u0dbb.\u0dad\u0dd9.\u0db8\u0dd2 \u0db4\u0dcf\u0dc3\u0dbd", "name:ta": "\u0bb5/\u0bae\u0ba9\u0bcd\u0ba9\u0b95\u0bc1\u0bb3\u0bae\u0bcd \u0b85\u0ba4\u0b95 \u0baa\u0bbe\u0b9f\u0b9a\u0bbe\u0bb2\u0bc8"}}, {"type": "node", "id": 4080807808, "lat": 9.0590085, "lon": 80.5091351, "tags": {"amenity": "school", "name": "V/Kanararayankulam Primary School", "short_name": "Kanararayankulam Primary School"}}, {"type": "node", "id": 4080814941, "lat": 9.0330312, "lon": 80.5179676, "tags": {"amenity": "school", "name": "V/Kurisuddakulam GTMS", "name:si": "\u0dc0/\u0d9a\u0dd4\u0dbb\u0dd2\u0dc3\u0dd4\u0da9\u0dca\u0da9\u0d9a\u0dd4\u0dbd\u0db8\u0dca \u0dbb.\u0dad\u0dd9.\u0db8\u0dca \u0db4\u0dcf\u0dc3\u0dbd", "name:ta": "\u0bb5/\u0b95\u0bc1\u0bb1\u0bbf\u0b9a\u0bc1\u0b9f\u0bcd\u0b9f\u0b95\u0bc1\u0bb3\u0bae\u0bcd \u0b85\u0ba4\u0b95 \u0baa\u0bbe\u0b9f\u0b9a\u0bbe\u0bb2\u0bc8"}}, {"type": "node", "id": 4080828018, "lat": 9.0012107, "lon": 80.6814215, "tags": {"addr:city": "Katkulam", "amenity": "school", "name": "V/Katkulam GTMS", "name:ta": "\u0b95\u0bb1\u0bcd\u0b95\u0bc1\u0bb3\u0bae\u0bcd \u0b85\u0ba4\u0b95 \u0baa\u0bbe\u0b9f\u0b9a\u0bbe\u0bb2\u0bc8", "short_name": "Katkulam GTMS"}}, {"type": "node", "id": 4082354972, "lat": 8.8209305, "lon": 80.4028389, "tags": {"addr:city": "Sasthirikoolankulam, Vavuniya", "amenity": "school", "name": "V/Kidachori Karuveppankulam GTMS"}}, {"type": "node", "id": 4082361696, "lat": 8.7863737, "lon": 80.4212438, "tags": {"addr:city": "Pampaimadu, Vavuniya", "amenity": "school", "name": "V/Pampaimadu GTMS"}}, {"type": "node", "id": 4090324485, "lat": 8.8899442, "lon": 80.4886243, "tags": {"amenity": "school", "name": "V/Konthakkarankulam GTMS", "short_name": "Konthakkarankulam GTMS"}}, {"type": "node", "id": 4090324758, "lat": 8.902595, "lon": 80.4573069, "tags": {"amenity": "school", "name": "V/Matharpannikankulam pre School"}}, {"type": "node", "id": 4090325808, "lat": 8.9511644, "lon": 80.3908793, "tags": {"amenity": "school", "name": "V/Kovilkunchchukkulam GTMS", "short_name": "Kovilkunchchukkulam GTMS"}}, {"type": "node", "id": 4092719604, "lat": 8.7563126, "lon": 80.4976238, "tags": {"amenity": "school", "name": "V/Saivapirakasa Ladies College", "short_name": "Saivapirakasa Ladies College"}}, {"type": "node", "id": 4092729454, "lat": 8.758937, "lon": 80.4938392, "tags": {"addr:housenumber": "21", "addr:street": "Vairavar kovil 5th   lane", "amenity": "school", "name": "Adventist International School"}}, {"type": "node", "id": 4092733478, "lat": 8.7583326, "lon": 80.5011509, "tags": {"amenity": "school", "name": "V/Church of Ceylon Tamil Maha Vidyalayam", "short_name": "CCTMV"}}, {"type": "node", "id": 4092752351, "lat": 8.7428694, "lon": 80.535349, "tags": {"alt_name": "Madukanda National School ", "amenity": "school", "name": "V/Madukanda National School "}}, {"type": "node", "id": 4092767467, "lat": 8.9685579, "lon": 80.5915628, "tags": {"amenity": "school", "name": "V/Anantharpuliyankulam GTMS", "name:ta": "\u0bb5/\u0b85\u0ba9\u0ba8\u0bcd\u0ba4\u0bb0\u0bcd\u0baa\u0bc1\u0bb3\u0bbf\u0baf\u0b99\u0bcd\u0b95\u0bc1\u0bb3\u0bae\u0bcd \u0b85\u0ba4\u0b95 \u0baa\u0bbe\u0b9f\u0b9a\u0bbe\u0bb2\u0bc8"}}, {"type": "node", "id": 4093099156, "lat": 8.934775, "lon": 80.3972673, "tags": {"addr:city": "Navvi, Vavuniya", "amenity": "school", "name": "V/Navvi Sri Vaany Vidayalayam", "name:ta": "\u0bb5/\u0ba8\u0bb5\u0bcd\u0bb5\u0bbf \u0bb8\u0bcd\u0bb0\u0bc0 \u0bb5\u0bbe\u0ba3\u0bbf \u0bb5\u0bbf\u0ba4\u0bcd\u0ba4\u0bbf\u0baf\u0bbe\u0bb2\u0baf\u0bae\u0bcd"}}, {"type": "node", "id": 4093131382, "lat": 8.891298, "lon": 80.4742, "tags": {"amenity": "school", "name": "V/Koliyakulam GTMS", "short_name": "Koliyakulam GTMS"}}, {"type": "node", "id": 4093153671, "lat": 8.9059998, "lon": 80.4308797, "tags": {"amenity": "school", "name": "V/Palamoddai GTMS", "name:ta": "\u0bb5/\u0baa\u0bbe\u0bb2\u0bae\u0bcb\u0b9f\u0bcd\u0b9f\u0bc8 \u0b85\u0ba4\u0b95 \u0baa\u0bbe\u0b9f\u0b9a\u0bb2\u0bc8", "short_name": "Palamoddai GTMS", "website": "https://www.facebook.com/VPalamoddai-G-T-M-School-522035951275591"}}, {"type": "node", "id": 4096446324, "lat": 8.796043, "lon": 80.3372686, "tags": {"addr:city": "Velankulam", "amenity": "school", "name": "V/Kovilmoddai Velankulam GTMS", "name:ta": "\u0bb5/\u0b95\u0bcb\u0bb5\u0bbf\u0bb2\u0bcd\u0bae\u0bcb\u0b9f\u0bcd\u0b9f\u0bc8 \u0bb5\u0bc7\u0bb2\u0ba9\u0bcd\u0b95\u0bc1\u0bb3\u0bae\u0bcd \u0b85\u0ba4\u0b95 \u0baa\u0bbe\u0b9f\u0b9a\u0bbe\u0bb2\u0bc8", "short_name": "Velankulam GTMS"}}, {"type": "node", "id": 4120474674, "lat": 9.0119193, "lon": 80.696992, "tags": {"addr:city": "Paddikudrippu", "amenity": "school", "name": "V/Paddikudiyiruppu GTMS", "name:ta": "\u0bb5/\u0baa\u0b9f\u0bcd\u0b9f\u0bbf\u0b95\u0bcd\u0b95\u0bc1\u0b9f\u0bbf\u0baf\u0bbf\u0bb0\u0bc1\u0baa\u0bcd\u0baa\u0bc1 \u0b85\u0ba4\u0b95 \u0baa\u0bbe\u0b9f\u0b9a\u0bbe\u0bb2\u0bc8", "short_name": "Paddikudiyiruppu G.T.M.S", "short_name:ta": "\u0baa\u0b9f\u0bcd\u0b9f\u0bbf\u0b95\u0bcd\u0b95\u0bc1\u0b9f\u0bbf\u0baf\u0bbf\u0bb0\u0bc1\u0baa\u0bcd\u0baa\u0bc1 \u0b85\u0ba4\u0b95 \u0baa\u0bbe\u0b9f\u0b9a\u0bbe\u0bb2\u0bc8"}}, {"type": "node", "id": 4120681716, "lat": 9.1087563, "lon": 80.4558663, "tags": {"amenity": "school", "name": "V/Pandaravanniyan GTMS", "short_name": "Pandaravanniyan GTMS"}}, {"type": "node", "id": 4120738579, "lat": 8.7523175, "lon": 80.3683968, "tags": {"amenity": "school", "name": "V/Poovarasankulam Maha Vidyalayam", "short_name": "Poovarasankulam Maha Vidyalayam"}}, {"type": "node", "id": 4121004912, "lat": 8.7815543, "lon": 80.4848395, "tags": {"addr:city": "Thandikulam", "amenity": "school", "name": "V/Pramandu Vidyalayam", "short_name": "Pramandu Vidyalayam"}}, {"type": "node", "id": 4123891457, "lat": 9.0968365, "lon": 80.6753835, "tags": {"amenity": "school", "name": "Mu/Thanduvan GTMS"}}, {"type": "node", "id": 4124115609, "lat": 9.1714149, "lon": 80.6775603, "tags": {"amenity": "school", "name": "Mu/Karuvelankandal G.T.M.S"}}, {"type": "node", "id": 4124124130, "lat": 9.1627819, "lon": 80.6604767, "tags": {"addr:city": "Oddusuddan", "amenity": "hospital", "name": "Divisional Hospital Oddusuddan"}}, {"type": "node", "id": 4124131763, "lat": 9.1548619, "lon": 80.5215919, "tags": {"amenity": "school", "name": "Mu/Karipaddamurippu GTMS"}}, {"type": "node", "id": 4124711882, "lat": 9.1296453, "lon": 80.39805, "tags": {"amenity": "school", "name": "Mu/Vannivilankulam GTMS", "name:ta": "\u0bae\u0bc1/\u0bb5\u0ba9\u0bcd\u0ba9\u0bbf\u0bb5\u0bbf\u0bb3\u0bbe\u0b99\u0bcd\u0b95\u0bc1\u0bb3\u0bae\u0bcd \u0b85\u0ba4\u0b95 \u0baa\u0bbe\u0b9f\u0b9a\u0bbe\u0bb2\u0bc8"}}, {"type": "node", "id": 4124716480, "lat": 9.1108181, "lon": 80.367923, "tags": {"alt_name": "Ambalpuram Tamil Vidyalayam", "alt_name:ta": "\u0b85\u0bae\u0bcd\u0baa\u0bbe\u0bb3\u0bcd\u0baa\u0bc1\u0bb0\u0bae\u0bcd \u0ba4\u0bae\u0bbf\u0bb4\u0bcd \u0bb5\u0bbf\u0ba4\u0bcd\u0ba4\u0bbf\u0baf\u0bbe\u0bb2\u0baf\u0bae\u0bcd", "amenity": "school", "name": "Mu/Ambalpuram Tamil Vidyalayam", "name:ta": "\u0bae\u0bc1/\u0b85\u0bae\u0bcd\u0baa\u0bbe\u0bb3\u0bcd\u0baa\u0bc1\u0bb0\u0bae\u0bcd \u0ba4\u0bae\u0bbf\u0bb4\u0bcd \u0bb5\u0bbf\u0ba4\u0bcd\u0ba4\u0bbf\u0baf\u0bbe\u0bb2\u0baf\u0bae\u0bcd"}}, {"type": "node", "id": 4124717061, "lat": 9.1126084, "lon": 80.3450603, "tags": {"alt_name": "Kollavilankulam GTMS", "alt_name:ta": "\u0b95\u0bca\u0bb2\u0bcd\u0bb2\u0bb5\u0bbf\u0bb3\u0bbe\u0b99\u0bcd\u0b95\u0bc1\u0bb3\u0bae\u0bcd \u0b85\u0ba4\u0b95 \u0baa\u0bbe\u0b9f\u0b9a\u0bbe\u0bb2\u0bc8", "amenity": "school", "name": "Mu/Kollavilankulam GTMS", "name:ta": "\u0bae\u0bc1/\u0b95\u0bca\u0bb2\u0bcd\u0bb2\u0bb5\u0bbf\u0bb3\u0bbe\u0b99\u0bcd\u0b95\u0bc1\u0bb3\u0bae\u0bcd \u0b85\u0ba4\u0b95 \u0baa\u0bbe\u0b9f\u0b9a\u0bbe\u0bb2\u0bc8"}}, {"type": "node", "id": 4124718284, "lat": 9.1081803, "lon": 80.3249598, "tags": {"alt_name": "Palinagar TV", "alt_name:ta": "\u0baa\u0bbe\u0bb2\u0bbf\u0ba8\u0b95\u0bb0\u0bcd \u0bae\u0b95\u0bbe \u0bb5\u0bbf\u0ba4\u0bcd\u0ba4\u0bbf\u0baf\u0bbe\u0bb2\u0baf\u0bae\u0bcd", "amenity": "school", "name": "Mu/Palinagar MV", "name:ta": "\u0bae\u0bc1/\u0baa\u0bbe\u0bb2\u0bbf\u0ba8\u0b95\u0bb0\u0bcd \u0bae\u0b95\u0bbe \u0bb5\u0bbf\u0ba4\u0bcd\u0ba4\u0bbf\u0baf\u0bbe\u0bb2\u0baf\u0bae\u0bcd"}}, {"type": "node", "id": 4124721067, "lat": 8.9488443, "lon": 80.332014, "tags": {"alt_name": "Sinnavalayankaddu GTMS", "alt_name:ta": "\u0b9a\u0bbf\u0ba9\u0bcd\u0ba9\u0bb5\u0bb2\u0baf\u0ba9\u0bcd\u0b95\u0b9f\u0bcd\u0b9f\u0bc1 \u0b85\u0ba4\u0b95 \u0baa\u0bbe\u0b9f\u0b9a\u0bbe\u0bb2\u0bc8", "amenity": "school", "grades": "1 to 11", "name": "Mn/Sinnavalayankaddu GTMS", "name:ta": "\u0bae\u0ba9\u0bcd/\u0b9a\u0bbf\u0ba9\u0bcd\u0ba9\u0bb5\u0bb2\u0baf\u0ba9\u0bcd\u0b95\u0b9f\u0bcd\u0b9f\u0bc1 \u0b85\u0ba4\u0b95 \u0baa\u0bbe\u0b9f\u0b9a\u0bbe\u0bb2\u0bc8"}}, {"type": "node", "id": 4126532843, "lat": 8.8387128, "lon": 80.5021487, "tags": {"amenity": "school", "name": "V/Manikka Illupaikulam GTMS", "short_name": "Manikka Illupaikulam GTMS"}}, {"type": "node", "id": 4126645357, "lat": 8.7490032, "lon": 80.5162947, "tags": {"amenity": "school", "name": "V/Velikulam J.H.S"}}, {"type": "node", "id": 4126691961, "lat": 8.7657026, "lon": 80.521723, "tags": {"amenity": "school", "name": "V/Annanagar Parameswara Vidyalayam"}}, {"type": "node", "id": 4126695917, "lat": 8.7743671, "lon": 80.5171428, "tags": {"amenity": "school", "name": "V/Matheena Vidyalayam"}}, {"type": "node", "id": 4126697843, "lat": 8.779458, "lon": 80.5076076, "tags": {"amenity": "school", "name": "V/Maharambaikulam GTMS"}}, {"type": "node", "id": 4126722824, "lat": 8.8993056, "lon": 80.5251379, "tags": {"addr:city": "Puthiyasinnakulam, Omanthai, Vavuniya", "amenity": "school", "name": "V/Anathakumarasamy Vidyalayam", "short_name": "Anathakumarasamy Vidyalayam"}}, {"type": "node", "id": 4126724458, "lat": 8.8919069, "lon": 80.5081944, "tags": {"addr:city": "Rambaikulam, Omanthai, Vavuniya", "amenity": "school", "name": "V/Nadarajanantha Vidyalayam"}}, {"type": "node", "id": 4126732389, "lat": 8.9712173, "lon": 80.6766506, "tags": {"amenity": "school", "name": "V/Maruthodai GTMS", "short_name": "Maruthodai GTMS"}}, {"type": "node", "id": 4169949978, "lat": 8.9987321, "lon": 80.6608099, "tags": {"addr:city": "Paddadaipirinthakulam", "amenity": "school", "name": "V/Paddaipirinthakulam GTMS", "name:ta": "\u0bb5/\u0baa\u0b9f\u0bcd\u0b9f\u0bc8\u0baa\u0bbf\u0bb0\u0bbf\u0ba8\u0bcd\u0ba4\u0b95\u0bc1\u0bb3\u0bae\u0bcd \u0b85\u0ba4\u0b95 \u0baa\u0bbe\u0b9f\u0b9a\u0bbe\u0bb2\u0bc8", "short_name": "Paddadaipirinthakulam G.T.M.S"}}, {"type": "node", "id": 4170671140, "lat": 8.794765, "lon": 80.5093449, "tags": {"alt_name": "Karupanichankulam GTMS", "amenity": "school", "name": "V/Karupanichankulam GTMS"}}, {"type": "node", "id": 4171955995, "lat": 8.8111404, "lon": 80.4625951, "tags": {"amenity": "school", "int_name": "Puthukulam Junior School", "name": "V/Puthukulam Junior School"}}, {"type": "node", "id": 4175053793, "lat": 8.783746, "lon": 80.455379, "tags": {"addr:city": "Ganeshapuram", "amenity": "school", "name": "V/Vinayagar Vidyalayam", "ref": "1302035", "short_name": "Vinayagar Vidyalayam"}}, {"type": "node", "id": 4175239339, "lat": 8.7870808, "lon": 80.5140727, "tags": {"addr:city": "Sri Ramapuram", "alt_name": "Thirunajanasampanthar Vidyalayam", "alt_name:ta": "\u0ba4\u0bbf\u0bb0\u0bc1\u0b9e\u0bbe\u0ba9\u0b9a\u0bae\u0bcd\u0baa\u0ba8\u0bcd\u0ba4\u0bb0\u0bcd \u0bb5\u0bbf\u0ba4\u0bcd\u0ba4\u0bbf\u0baf\u0bbe\u0bb2\u0baf\u0bae\u0bcd", "amenity": "school", "name": "V/Thirunajanasampanthar Vidyalayam", "name:ta": "\u0bb5/\u0ba4\u0bbf\u0bb0\u0bc1\u0b9e\u0bbe\u0ba9\u0b9a\u0bae\u0bcd\u0baa\u0ba8\u0bcd\u0ba4\u0bb0\u0bcd \u0bb5\u0bbf\u0ba4\u0bcd\u0ba4\u0bbf\u0baf\u0bbe\u0bb2\u0baf\u0bae\u0bcd"}}, {"type": "node", "id": 4175275320, "lat": 8.7883557, "lon": 80.4954487, "tags": {"addr:city": "Thambanaicholai", "alt_name": "Thampanaicholai Keetheeswara Vidyalayam", "amenity": "school", "name": "V/Thampanaicholai Keetheeswara Vidyalayam"}}, {"type": "node", "id": 4180342014, "lat": 8.8322173, "lon": 80.4801941, "tags": {"addr:city": "Paranaddakal", "alt_name": "Paranaddakal GTMS", "amenity": "school", "name": "V/Paranaddakal GTMS"}}, {"type": "node", "id": 4186782502, "lat": 8.7611875, "lon": 80.5265679, "tags": {"addr:city": "Nedunkulam", "amenity": "school", "name": "V/Nedunkulam GSMS"}}, {"type": "node", "id": 4186791271, "lat": 8.8306726, "lon": 80.3815242, "tags": {"amenity": "school", "name": "V/Poompukar Kannaki Vidyalayam", "name:ta": "\u0bb5/\u0baa\u0bc2\u0bae\u0bcd\u0baa\u0bc1\u0b95\u0bbe\u0bb0\u0bcd \u0b95\u0ba3\u0bcd\u0ba3\u0b95\u0bc8 \u0bb5\u0bbf\u0ba4\u0bcd\u0ba4\u0bbf\u0baf\u0bbe\u0bb2\u0baf\u0bae\u0bcd"}}, {"type": "node", "id": 4186802705, "lat": 8.8014156, "lon": 80.4414185, "tags": {"addr:city": "Sasthirikoolankulam, Vavuniya", "amenity": "school", "name": "V/Suntharapuram Saraswathy Vidyalayam"}}, {"type": "node", "id": 4186814889, "lat": 8.8374252, "lon": 80.4177131, "tags": {"addr:city": "Echchankulam", "amenity": "school", "name": "V/Thavasiyakulam GTMS"}}, {"type": "node", "id": 4201655682, "lat": 8.7845977, "lon": 80.3228335, "tags": {"addr:city": "Maddukkulam", "amenity": "school", "name": "V/Madukkulam Navajothy Vidyalayam"}}, {"type": "node", "id": 4201786969, "lat": 8.7582306, "lon": 80.400571, "tags": {"amenity": "school", "name": "V/Ayisha Vidyalayam"}}, {"type": "node", "id": 4206291489, "lat": 9.0709946, "lon": 80.5453793, "tags": {"amenity": "school", "name": "V/Karappukuththy GTMS"}}, {"type": "node", "id": 4206297957, "lat": 9.046438, "lon": 80.5578621, "tags": {"amenity": "school", "name": "V/Sinadampan Barathi Vidyalayam"}}, {"type": "node", "id": 4206299790, "lat": 9.0453016, "lon": 80.5761762, "tags": {"amenity": "school", "name": "V/Ayilady GTMS"}}, {"type": "node", "id": 4206304523, "lat": 9.0570968, "lon": 80.6676423, "tags": {"amenity": "school", "name": "V/Senaipulavu Umaiyal Vidyalayam", "name:ta": "\u0bb5/\u0b9a\u0bc7\u0ba9\u0bc8\u0baa\u0bcd\u0baa\u0bc1\u0bb2\u0bb5\u0bc1 \u0b89\u0bae\u0bc8\u0baf\u0bbe\u0bb3\u0bcd \u0bb5\u0bbf\u0ba4\u0bcd\u0ba4\u0bbf\u0baf\u0bbe\u0bb2\u0baf\u0bae\u0bcd"}}, {"type": "node", "id": 4206318102, "lat": 8.9633341, "lon": 80.6573908, "tags": {"amenity": "school", "name": "V/Unchalkaddy GTMS"}}, {"type": "node", "id": 4206345780, "lat": 9.0740538, "lon": 80.6691631, "tags": {"amenity": "school", "name": "V/Mamadu Sri Vani Vidyalayam"}}, {"type": "node", "id": 4206347245, "lat": 9.0527951, "lon": 80.6207867, "tags": {"amenity": "school", "name": "V/Velankulam GTMS"}}, {"type": "node", "id": 4206352919, "lat": 9.0437361, "lon": 80.4943474, "tags": {"addr:city": "Alankulam, Kanagarayankulam", "alt_name": "Muruganantha Vidyalayam", "amenity": "school", "int_name": "MurugaananthaaVidyalayam", "name": "V/Muruganantha Vidyalayam"}}, {"type": "node", "id": 4206353707, "lat": 9.077676, "lon": 80.636864, "tags": {"addr:city": "Maraviluppai, Nedunkerny", "alt_name": "Maraviluppai GTMS", "amenity": "school", "int_name": "Maaraviluppai GTMS", "name": "V/Maraviluppai GTMS"}}, {"type": "node", "id": 4206361601, "lat": 8.9540978, "lon": 80.5838147, "tags": {"amenity": "school", "name": "V/Nochchikkulamn Muththumari Vidyalayam"}}, {"type": "node", "id": 4206368115, "lat": 9.0406581, "lon": 80.5063691, "tags": {"amenity": "school", "name": "V/Puthukkulam Pandithamani Kanapathipillai Vidyalayam"}}, {"type": "node", "id": 4210190543, "lat": 8.7567266, "lon": 80.4393579, "tags": {"amenity": "school", "name": "V/Sivapuram GTMS"}}, {"type": "node", "id": 4210828557, "lat": 8.7415441, "lon": 80.4290791, "tags": {"addr:city": "Pulitharithapuliyankulam, Vavuniya", "amenity": "school", "name": "V/Arafa Vidyalayam"}}, {"type": "node", "id": 4211919335, "lat": 8.8014167, "lon": 80.5463622, "tags": {"addr:city": "Veemankallu", "amenity": "school", "name": "V/Veemankallu GTMS"}}, {"type": "node", "id": 4214881793, "lat": 8.9127051, "lon": 80.5401037, "tags": {"amenity": "school", "name": "V/Maraiyadithakulam GTMS"}}, {"type": "node", "id": 4214885389, "lat": 8.8212538, "lon": 80.5162118, "tags": {"addr:city": "Agbopura", "alt_name": "Puthiyasinnakulam GTMS", "alt_name:ta": "\u0baa\u0bc1\u0ba4\u0bbf\u0baf\u0b9a\u0bbf\u0ba9\u0bcd\u0ba9\u0b95\u0bcd\u0b95\u0bc1\u0bb3\u0bae\u0bcd \u0b85\u0ba4\u0b95 \u0baa\u0bbe\u0b9f\u0b9a\u0bbe\u0bb2\u0bc8", "amenity": "school", "grades": "1 to 5", "name": "V/Puthiyasinnakulam GTMS", "name:ta": "V/Puthiyasinnakulam GTMS"}}, {"type": "node", "id": 4274897893, "lat": 9.1625142, "lon": 80.6572755}, {"type": "node", "id": 4274897895, "lat": 9.1625804, "lon": 80.6574043}, {"type": "node", "id": 4274897898, "lat": 9.1627446, "lon": 80.6578522}, {"type": "node", "id": 4274897913, "lat": 9.1629273, "lon": 80.6581794}, {"type": "node", "id": 4274897924, "lat": 9.1630319, "lon": 80.6570784}, {"type": "node", "id": 4274897932, "lat": 9.1631709, "lon": 80.6582679}, {"type": "node", "id": 4274897935, "lat": 9.1631961, "lon": 80.6571857}, {"type": "node", "id": 4274897939, "lat": 9.1633298, "lon": 80.6582492}, {"type": "node", "id": 4274897940, "lat": 9.1633496, "lon": 80.65747}, {"type": "node", "id": 4274897941, "lat": 9.163392, "lon": 80.6576524}, {"type": "node", "id": 4274897942, "lat": 9.1634145, "lon": 80.6582116}, {"type": "node", "id": 4274897943, "lat": 9.1634251, "lon": 80.6579166}, {"type": "node", "id": 4274897944, "lat": 9.1634344, "lon": 80.6578401}, {"type": "node", "id": 4274897945, "lat": 9.1634357, "lon": 80.658056}, {"type": "node", "id": 4322769630, "lat": 8.7750664, "lon": 80.4989808}, {"type": "node", "id": 4322769631, "lat": 8.7750051, "lon": 80.4989498}, {"type": "node", "id": 4322769632, "lat": 8.7749261, "lon": 80.4991098}, {"type": "node", "id": 4322769633, "lat": 8.7749874, "lon": 80.4991407}, {"type": "node", "id": 4323178753, "lat": 8.746896, "lon": 80.484414}, {"type": "node", "id": 4323178754, "lat": 8.7469277, "lon": 80.4844851}, {"type": "node", "id": 4323178755, "lat": 8.7469312, "lon": 80.4843445}, {"type": "node", "id": 4323178756, "lat": 8.7470025, "lon": 80.4845044}, {"type": "node", "id": 4323178757, "lat": 8.7470069, "lon": 80.4843291}, {"type": "node", "id": 4323178758, "lat": 8.747064, "lon": 80.4844573}, {"type": "node", "id": 4323178759, "lat": 8.747066, "lon": 80.4843793}, {"type": "node", "id": 4323179162, "lat": 8.7750695, "lon": 80.4989152}, {"type": "node", "id": 4323179163, "lat": 8.7750958, "lon": 80.4988757}, {"type": "node", "id": 4323179166, "lat": 8.7751675, "lon": 80.4989823}, {"type": "node", "id": 4323179167, "lat": 8.7751939, "lon": 80.4989428}, {"type": "node", "id": 4375477061, "lat": 8.8709568, "lon": 80.5523786, "tags": {"amenity": "school", "name": "V/Alaikallupoddakulam Veeramamunivar Vidyalayalam", "name:ta": "\u0bb5/\u0b85\u0bb2\u0bc8\u0b95\u0bb2\u0bcd\u0bb2\u0bc1\u0baa\u0bcd\u0baa\u0bcb\u0b9f\u0bcd\u0b9f\u0b95\u0bc1\u0bb3\u0bae\u0bcd \u0bb5\u0bc0\u0bb0\u0bae\u0bbe\u0bae\u0bc1\u0ba9\u0bbf\u0bb5\u0bb0\u0bcd \u0bb5\u0bbf\u0ba4\u0bcd\u0ba4\u0bbf\u0baf\u0bbe\u0bb2\u0baf\u0bae\u0bcd"}}, {"type": "node", "id": 4375522637, "lat": 9.0610265, "lon": 80.5723166, "tags": {"amenity": "school", "name": "V/Periyamadhu GTMS", "name:ta": "\u0bb5/\u0baa\u0bc6\u0bb0\u0bbf\u0baf\u0bae\u0b9f\u0bc1 \u0b85\u0ba4\u0b95 \u0baa\u0bbe\u0b9f\u0b9a\u0bbe\u0bb2\u0bc8"}}, {"type": "node", "id": 4375556462, "lat": 8.8573145, "lon": 80.3903021, "tags": {"amenity": "school", "name": "V/Kalmadukulam Unit 2 GMMS"}}, {"type": "node", "id": 4411284187, "lat": 9.1395073, "lon": 80.4472223, "tags": {"addr:city": "Sannasipranathan", "amenity": "school", "name": "Mu/Sanmugaratnam Vidyalayam", "name:ta": "\u0bae\u0bc1/\u0b9a\u0ba3\u0bcd\u0bae\u0bc1\u0b95\u0bb0\u0b9f\u0bcd\u0ba3\u0bae\u0bcd \u0bb5\u0bbf\u0ba4\u0bcd\u0ba4\u0bbf\u0baf\u0bbe\u0bb2\u0baf\u0bae\u0bcd"}}, {"type": "node", "id": 4420670231, "lat": 9.154666, "lon": 80.4860066, "tags": {"amenity": "school", "name": "Mu/Olumadu Tamil Vidyalayam", "name:ta": "\u0bae\u0bc1/\u0b92\u0bb2\u0bc1\u0bae\u0b9f\u0bc1 \u0ba4\u0bae\u0bbf\u0bb4\u0bcd \u0bb5\u0bbf\u0ba4\u0bcd\u0ba4\u0bbf\u0baf\u0bbe\u0bb2\u0baf\u0bae\u0bcd"}}, {"type": "node", "id": 4420671592, "lat": 9.1410603, "lon": 80.504357, "tags": {"amenity": "school", "name": "Mu/Periyapuliyankulam GTMS", "name:ta": "\u0bae\u0bc1/\u0baa\u0bc6\u0bb0\u0bbf\u0baf\u0baa\u0bc1\u0bb3\u0bbf\u0baf\u0b99\u0bcd\u0b95\u0bc1\u0bb3\u0bae\u0bcd \u0b85\u0ba4\u0b95 \u0baa\u0bbe\u0b9f\u0b9a\u0bbe\u0bb2\u0bc8"}}, {"type": "node", "id": 4420705108, "lat": 9.0600733, "lon": 80.3948308, "tags": {"amenity": "school", "name": "Mu/Paalaipaani Tamil Vidyalayam", "name:ta": "\u0bae\u0bc1/\u0baa\u0bbe\u0bb2\u0bc8\u0baa\u0bcd\u0baa\u0bbe\u0ba3\u0bbf \u0ba4\u0bae\u0bbf\u0bb4\u0bcd \u0bb5\u0bbf\u0ba4\u0bcd\u0ba4\u0bbf\u0baf\u0bbe\u0bb2\u0baf\u0bae\u0bcd"}}, {"type": "node", "id": 4430612669, "lat": 8.7421022, "lon": 80.4411666, "tags": {"alt_name": "Parathi Vidyalayam", "amenity": "school", "historic_name": "Bharathi Vidyalayam", "name": "V/Parathi Vidyalayam"}}, {"type": "node", "id": 4430638871, "lat": 8.7571259, "lon": 80.49696, "tags": {"alt_name": "Saivapiragasa Primary School", "amenity": "school", "name": "V/Saivapiragasa Primary School", "name:ta": "\u0bb5/\u0b9a\u0bc8\u0bb5\u0baa\u0bcd\u0baa\u0bbf\u0bb0\u0b95\u0bbe\u0b9a \u0b86\u0bb0\u0bae\u0bcd\u0baa \u0baa\u0bbe\u0b9f\u0b9a\u0bbe\u0bb2\u0bc8"}}, {"type": "node", "id": 4433492984, "lat": 9.0900182, "lon": 80.3255032, "tags": {"alt_name": "Vavunikkulam Central Sulusu GTMS", "alt_name:ta": "\u0bb5\u0bb5\u0bc1\u0ba9\u0bbf\u0b95\u0bcd\u0b95\u0bc1\u0bb3\u0bae\u0bcd \u0bae\u0ba4\u0bcd\u0ba4\u0bbf\u0baf \u0b9a\u0bc1\u0bb2\u0bc1\u0b9a\u0bc1 \u0b85\u0ba4\u0b95 \u0baa\u0bbe\u0b9f\u0b9a\u0bbe\u0bb2\u0bc8", "amenity": "school", "name": "Mu/Vavunikkulam Central Sulusu GTMS", "name:ta": "\u0bae\u0bc1/\u0bb5\u0bb5\u0bc1\u0ba9\u0bbf\u0b95\u0bcd\u0b95\u0bc1\u0bb3\u0bae\u0bcd \u0bae\u0ba4\u0bcd\u0ba4\u0bbf\u0baf \u0b9a\u0bc1\u0bb2\u0bc1\u0b9a\u0bc1 \u0b85\u0ba4\u0b95 \u0baa\u0bbe\u0b9f\u0b9a\u0bbe\u0bb2\u0bc8"}}, {"type": "node", "id": 4443964357, "lat": 9.1229448, "lon": 80.6472694, "tags": {"amenity": "school", "name": "Mu/Kathaliyar Sammalankulam  GTMS", "name:ta": "\u0bae\u0bc1/\u0b95\u0bbe\u0ba4\u0bb2\u0bbf\u0baf\u0bbe\u0bb0\u0bcd \u0b9a\u0bae\u0bb3\u0b99\u0bcd\u0b95\u0bc1\u0bb3\u0bae\u0bcd \u0b85\u0ba4\u0b95 \u0baa\u0bbe\u0b9f\u0b9a\u0bbe\u0bb2\u0bc8"}}, {"type": "node", "id": 4454516078, "lat": 9.1324827, "lon": 80.3141435, "tags": {"alt_name": "Anijayankulam TM Vidyalayam", "alt_name:ta": "\u0b85\u0ba9\u0bbf\u0b9e\u0bcd\u0b9a\u0bbf\u0baf\u0ba9\u0bcd\u0b95\u0bc1\u0bb3\u0bae\u0bcd \u0ba4\u0b95 \u0bb5\u0bbf\u0ba4\u0bcd\u0ba4\u0bbf\u0baf\u0bbe\u0bb2\u0baf\u0bae\u0bcd", "amenity": "school", "name": "Mu/Anichiyankulam TM Vidyalayam", "name:ta": "\u0bae\u0bc1/\u0b85\u0ba9\u0bbf\u0b9e\u0bcd\u0b9a\u0bbf\u0baf\u0ba9\u0bcd\u0b95\u0bc1\u0bb3\u0bae\u0bcd \u0ba4\u0b95 \u0bb5\u0bbf\u0ba4\u0bcd\u0ba4\u0bbf\u0baf\u0bbe\u0bb2\u0baf\u0bae\u0bcd"}}, {"type": "node", "id": 4513844665, "lat": 8.9410406, "lon": 80.4975939, "tags": {"amenity": "school", "name": "V/Periyamadu Ambal Vidyalayam", "short_name": "Periyamadu Ambal Vidyalayam"}}, {"type": "node", "id": 4573545394, "lat": 8.8287431, "lon": 80.4476037, "tags": {"addr:city": "Kaddaiyarkulam", "amenity": "school", "name": "V/Thiruvalluvar Vidyalayam"}}, {"type": "node", "id": 4697627857, "lat": 9.1224299, "lon": 80.6859062, "tags": {"alt_name": "Periyaithimadu GTMS", "alt_name:ta": "\u0baa\u0bc6\u0bb0\u0bbf\u0baf\u0b87\u0ba4\u0bcd\u0ba4\u0bbf\u0bae\u0b9f\u0bc1 \u0b85\u0ba4\u0b95 \u0baa\u0bbe\u0b9f\u0b9a\u0bbe\u0bb2\u0bc8", "amenity": "school", "name": "Mu/Periyaithimadu GTMS", "name:ta": "\u0bae\u0bc1/\u0baa\u0bc6\u0bb0\u0bbf\u0baf\u0b87\u0ba4\u0bcd\u0ba4\u0bbf\u0bae\u0b9f\u0bc1 \u0b85\u0ba4\u0b95 \u0baa\u0bbe\u0b9f\u0b9a\u0bbe\u0bb2\u0bc8"}}, {"type": "node", "id": 5085764029, "lat": 8.8105154, "lon": 80.542}, {"type": "node", "id": 5085764030, "lat": 8.8104505, "lon": 80.5420563}, {"type": "node", "id": 5085764031, "lat": 8.810397, "lon": 80.5419932}, {"type": "node", "id": 5085764032, "lat": 8.810462, "lon": 80.5419369}, {"type": "node", "id": 5085764033, "lat": 8.8106911, "lon": 80.5418856}, {"type": "node", "id": 5085764034, "lat": 8.8105957, "lon": 80.5419983}, {"type": "node", "id": 5085764035, "lat": 8.8105481, "lon": 80.541957}, {"type": "node", "id": 5085764036, "lat": 8.8106435, "lon": 80.5418444}, {"type": "node", "id": 5085764037, "lat": 8.8105597, "lon": 80.542448}, {"type": "node", "id": 5085764038, "lat": 8.8104908, "lon": 80.5425191}, {"type": "node", "id": 5085764039, "lat": 8.8102658, "lon": 80.5422829}, {"type": "node", "id": 5085764040, "lat": 8.8103281, "lon": 80.5422185}, {"type": "node", "id": 5085764041, "lat": 8.8109547, "lon": 80.542285}, {"type": "node", "id": 5085764042, "lat": 8.8108579, "lon": 80.5423789}, {"type": "node", "id": 5085764043, "lat": 8.8108026, "lon": 80.5423205}, {"type": "node", "id": 5085764044, "lat": 8.8108993, "lon": 80.5422266}, {"type": "node", "id": 5085764045, "lat": 8.8109406, "lon": 80.5419994}, {"type": "node", "id": 5085764046, "lat": 8.8108637, "lon": 80.5420544}, {"type": "node", "id": 5085764047, "lat": 8.810792, "lon": 80.5419517}, {"type": "node", "id": 5085764048, "lat": 8.8108688, "lon": 80.5418967}, {"type": "node", "id": 5085764049, "lat": 8.8108314, "lon": 80.5418889}, {"type": "node", "id": 5085764050, "lat": 8.8107718, "lon": 80.5419372}, {"type": "node", "id": 5085764051, "lat": 8.810674, "lon": 80.5418135}, {"type": "node", "id": 5085764052, "lat": 8.8107337, "lon": 80.5417652}, {"type": "node", "id": 5087666416, "lat": 8.8000902, "lon": 80.5355828}, {"type": "node", "id": 5087666417, "lat": 8.8000916, "lon": 80.5353829}, {"type": "node", "id": 5087666418, "lat": 8.8001075, "lon": 80.5351736}, {"type": "node", "id": 5087666419, "lat": 8.8002161, "lon": 80.5349243}, {"type": "node", "id": 5087666420, "lat": 8.8003566, "lon": 80.5348251}, {"type": "node", "id": 5087667021, "lat": 8.8006694, "lon": 80.5348652}, {"type": "node", "id": 5087667022, "lat": 8.8009265, "lon": 80.535045}, {"type": "node", "id": 5087667023, "lat": 8.800782, "lon": 80.5357007}, {"type": "node", "id": 5087667112, "lat": 8.8111243, "lon": 80.5421514}, {"type": "node", "id": 5087667113, "lat": 8.8110931, "lon": 80.54217}, {"type": "node", "id": 5087667114, "lat": 8.8110796, "lon": 80.5421468}, {"type": "node", "id": 5087667115, "lat": 8.8111108, "lon": 80.5421282}, {"type": "node", "id": 5087787819, "lat": 8.8105781, "lon": 80.5424189}, {"type": "node", "id": 5087787820, "lat": 8.8103992, "lon": 80.5422097}, {"type": "node", "id": 5087787821, "lat": 8.8104779, "lon": 80.5421408}, {"type": "node", "id": 5087787822, "lat": 8.8106568, "lon": 80.54235}, {"type": "node", "id": 5104990096, "lat": 8.8008655, "lon": 80.5353427}, {"type": "node", "id": 5117115694, "lat": 8.8110318, "lon": 80.5419202}, {"type": "node", "id": 5117115695, "lat": 8.8111962, "lon": 80.5421676}, {"type": "node", "id": 5117115697, "lat": 8.8110637, "lon": 80.542285}, {"type": "node", "id": 5117115698, "lat": 8.81089, "lon": 80.5424163}, {"type": "node", "id": 5117115701, "lat": 8.8104819, "lon": 80.5425927}, {"type": "node", "id": 5117139955, "lat": 8.8106806, "lon": 80.5417163}, {"type": "node", "id": 5117139960, "lat": 8.8102062, "lon": 80.5423044}, {"type": "node", "id": 5117139963, "lat": 8.8107323, "lon": 80.542354}, {"type": "node", "id": 5117139964, "lat": 8.8108278, "lon": 80.5424519}, {"type": "node", "id": 5117139971, "lat": 8.8108602, "lon": 80.5416419}, {"type": "node", "id": 5119238763, "lat": 8.810364, "lon": 80.5419664}, {"type": "node", "id": 5119238764, "lat": 8.8102327, "lon": 80.542236}, {"type": "node", "id": 5136892380, "lat": 8.8335304, "lon": 80.5426571}, {"type": "node", "id": 5136892381, "lat": 8.8342871, "lon": 80.5428368}, {"type": "node", "id": 5136892382, "lat": 8.8344461, "lon": 80.5429065}, {"type": "node", "id": 5136892383, "lat": 8.8344064, "lon": 80.5431144}, {"type": "node", "id": 5136892384, "lat": 8.8343772, "lon": 80.5432579}, {"type": "node", "id": 5136892385, "lat": 8.8343229, "lon": 80.5435435}, {"type": "node", "id": 5136892386, "lat": 8.8342997, "lon": 80.5436669}, {"type": "node", "id": 5136892387, "lat": 8.8339776, "lon": 80.5436234}, {"type": "node", "id": 5136892388, "lat": 8.8338425, "lon": 80.5435979}, {"type": "node", "id": 5136892389, "lat": 8.8333462, "lon": 80.5435341}, {"type": "node", "id": 5171004313, "lat": 8.8109868, "lon": 80.5418424}, {"type": "node", "id": 5171004314, "lat": 8.8111186, "lon": 80.5420482}, {"type": "node", "id": 5503725893, "lat": 8.976053, "lon": 80.7449191, "tags": {"amenity": "school", "name": "Mu/Ethawetuwewa Maha Vidyalaya", "name:ta": "\u0bae\u0bc1/\u0b8e\u0b95\u0ba4\u0bc1\u0b95\u0bb8\u0bcd\u0bb5\u0bc6\u0bb5 \u0bb5\u0bbf\u0ba4\u0bcd\u0ba4\u0bbf\u0baf\u0bbe\u0bb2\u0baf\u0bae\u0bcd"}}, {"type": "node", "id": 5584394122, "lat": 9.1309647, "lon": 80.44585, "tags": {"highway": "bus_stop", "public_transport": "stop_area"}}, {"type": "node", "id": 5602512618, "lat": 8.7769289, "lon": 80.5225962, "tags": {"alt_name": "Katharsinnakulam MV", "alt_name:ta": "\u0b95\u0bbe\u0ba4\u0bcd\u0ba4\u0bbe\u0bb0\u0bcd\u0b9a\u0bbf\u0ba9\u0bcd\u0ba9\u0b95\u0bcd\u0b95\u0bc1\u0bb3\u0bae\u0bcd \u0b85\u0ba4\u0b95 \u0baa\u0bbe\u0b9f\u0b9a\u0bbe\u0bb2\u0bc8", "amenity": "school", "name": "V/Katharsinnakulam MV", "name:ta": "\u0bb5/\u0b95\u0bbe\u0ba4\u0bcd\u0ba4\u0bbe\u0bb0\u0bcd\u0b9a\u0bbf\u0ba9\u0bcd\u0ba9\u0b95\u0bcd\u0b95\u0bc1\u0bb3\u0bae\u0bcd \u0b85\u0ba4\u0b95 \u0baa\u0bbe\u0b9f\u0b9a\u0bbe\u0bb2\u0bc8"}}, {"type": "node", "id": 5614653921, "lat": 8.7622588, "lon": 80.4944262, "tags": {"alt_name": "Gamini Vidyalaya", "alt_name:ta": "\u0b95\u0bbe\u0bae\u0bbf\u0ba9\u0bbf \u0bb5\u0bbf\u0ba4\u0bcd\u0ba4\u0bbf\u0baf\u0bbe\u0bb2\u0baf\u0bae\u0bcd", "amenity": "school", "name": "V/Gamini Vidyalaya", "name:ta": "\u0bb5/\u0b95\u0bbe\u0bae\u0bbf\u0ba9\u0bbf \u0bb5\u0bbf\u0ba4\u0bcd\u0ba4\u0bbf\u0baf\u0bbe\u0bb2\u0baf\u0bae\u0bcd"}}, {"type": "node", "id": 5623353310, "lat": 8.9833261, "lon": 80.3488636, "tags": {"alt_name": "Moonrumurippu GTMS", "alt_name:ta": "\u0bae\u0bc2\u0ba9\u0bcd\u0bb1\u0bc1\u0bae\u0bc1\u0bb1\u0bbf\u0baa\u0bcd\u0baa\u0bc1 \u0b85\u0ba4\u0b95 \u0baa\u0bbe\u0b9f\u0b9a\u0bbe\u0bb2\u0bc8", "amenity": "school", "grades": "1 to 5", "name": "Mu/Moonrumurippu GTMS", "name:ta": "\u0bae\u0bc1/\u0bae\u0bc2\u0ba9\u0bcd\u0bb1\u0bc1\u0bae\u0bc1\u0bb1\u0bbf\u0baa\u0bcd\u0baa\u0bc1 \u0b85\u0ba4\u0b95 \u0baa\u0bbe\u0b9f\u0b9a\u0bbe\u0bb2\u0bc8"}}, {"type": "node", "id": 5627093888, "lat": 8.8939209, "lon": 80.3576675, "tags": {"addr:city": "Iranaiillupaikkulam", "addr:street": "Vilaththikkulam", "alt_name": "Vilathikkulam GTMS", "alt_name:ta": "\u0bb5\u0bbf\u0bb3\u0bbe\u0ba4\u0bcd\u0ba4\u0bbf\u0b95\u0bcd\u0b95\u0bc1\u0bb3\u0bae\u0bcd \u0b85\u0ba4\u0b95 \u0baa\u0bbe\u0b9f\u0b9a\u0bbe\u0bb2\u0bc8", "amenity": "school", "name": "Mn/Vilathikkulam GTMS", "name:ta": "\u0bae\u0ba9\u0bcd/\u0bb5\u0bbf\u0bb3\u0bbe\u0ba4\u0bcd\u0ba4\u0bbf\u0b95\u0bcd\u0b95\u0bc1\u0bb3\u0bae\u0bcd \u0b85\u0ba4\u0b95 \u0baa\u0bbe\u0b9f\u0b9a\u0bbe\u0bb2\u0bc8"}}, {"type": "node", "id": 5627093889, "lat": 8.8617604, "lon": 80.3747368, "tags": {"addr:city": "Iranaiiluppaikkulam", "alt_name": "Kakaiyankulam GMTMS", "alt_name:ta": "\u0b95\u0bbe\u0b95\u0bcd\u0b95\u0bc8\u0baf\u0ba9\u0bcd\u0b95\u0bc1\u0bb3\u0bae\u0bcd \u0b85\u0bae\u0bc1\u0ba4\u0b95 \u0baa\u0bbe\u0b9f\u0b9a\u0bbe\u0bb2\u0bc8", "amenity": "school", "grades": "1 to 5", "name": "Mn/Kakaiyankulam GMTMS", "name:ta": "\u0bae\u0ba9\u0bcd/\u0b95\u0bbe\u0b95\u0bcd\u0b95\u0bc8\u0baf\u0ba9\u0bcd\u0b95\u0bc1\u0bb3\u0bae\u0bcd \u0b85\u0bae\u0bc1\u0ba4\u0b95 \u0baa\u0bbe\u0b9f\u0b9a\u0bbe\u0bb2\u0bc8"}}, {"type": "node", "id": 5647299295, "lat": 8.9136799, "lon": 80.4228494, "tags": {"alt_name": "Vaarudaiyar Illuppaikkulam GTMS", "alt_name:ta": "\u0bb5\u0bbe\u0bb0\u0bc1\u0b9f\u0bc8\u0baf\u0bbe\u0bb0\u0bcd \u0b87\u0bb2\u0bc1\u0baa\u0bcd\u0baa\u0bc8\u0b95\u0bcd\u0b95\u0bc1\u0bb3\u0bae\u0bcd \u0b85\u0ba4\u0b95 \u0baa\u0bbe\u0b9f\u0b9a\u0bbe\u0bb2\u0bc8", "amenity": "school", "grades": "1 to 5", "name": "V/Vaarudaiyar Illuppaikkulam GTMS", "name:ta": "\u0bb5/\u0bb5\u0bbe\u0bb0\u0bc1\u0b9f\u0bc8\u0baf\u0bbe\u0bb0\u0bcd \u0b87\u0bb2\u0bc1\u0baa\u0bcd\u0baa\u0bc8\u0b95\u0bcd\u0b95\u0bc1\u0bb3\u0bae\u0bcd \u0b85\u0ba4\u0b95 \u0baa\u0bbe\u0b9f\u0b9a\u0bbe\u0bb2\u0bc8"}}, {"type": "node", "id": 5647299296, "lat": 8.864742, "lon": 80.4859941, "tags": {"alt_name": "Vilaththikkulam Sithamparam Vidyalayam", "alt_name:ta": "\u0bb5/\u0bb5\u0bbf\u0bb3\u0bbe\u0ba4\u0bcd\u0ba4\u0bbf\u0b95\u0bcd\u0b95\u0bc1\u0bb3\u0bae\u0bcd \u0b9a\u0bbf\u0ba4\u0bae\u0bcd\u0baa\u0bb0\u0bae\u0bcd \u0bb5\u0bbf\u0ba4\u0bcd\u0ba4\u0bbf\u0baf\u0bbe\u0bb2\u0baf\u0bae\u0bcd", "amenity": "school", "grades": "1 to 5", "name": "V/Vilaththikkulam Sithamparam Vidyalayam", "name:ta": "\u0bb5/\u0bb5\u0bbf\u0bb3\u0bbe\u0ba4\u0bcd\u0ba4\u0bbf\u0b95\u0bcd\u0b95\u0bc1\u0bb3\u0bae\u0bcd \u0b9a\u0bbf\u0ba4\u0bae\u0bcd\u0baa\u0bb0\u0bae\u0bcd \u0bb5\u0bbf\u0ba4\u0bcd\u0ba4\u0bbf\u0baf\u0bbe\u0bb2\u0baf\u0bae\u0bcd"}}, {"type": "node", "id": 5647299297, "lat": 8.866424, "lon": 80.5182049, "tags": {"alt_name": "Maruthoday GTMS", "alt_name:ta": "\u0bae\u0bb0\u0bc1\u0ba4\u0bcb\u0b9f\u0bc8 \u0b85\u0ba4\u0b95 \u0baa\u0bbe\u0b9f\u0b9a\u0bbe\u0bb2\u0bc8", "amenity": "school", "name": "V/Maruthoday GTMS", "name:ta": "\u0bb5/\u0bae\u0bb0\u0bc1\u0ba4\u0bcb\u0b9f\u0bc8 \u0b85\u0ba4\u0b95 \u0baa\u0bbe\u0b9f\u0b9a\u0bbe\u0bb2\u0bc8"}}, {"type": "node", "id": 5647299298, "lat": 8.8520086, "lon": 80.5197061, "tags": {"alt_name": "Nampankulam Sri Muthumari Amman Vidyalayam", "alt_name:ta": "\u0ba8\u0bbe\u0bae\u0bcd\u0baa\u0ba9\u0bcd\u0b95\u0bc1\u0bb3\u0bae\u0bcd \u0bb8\u0bcd\u0bb0\u0bc0 \u0bae\u0bc1\u0ba4\u0bcd\u0ba4\u0bc1\u0bae\u0bbe\u0bb0\u0bbf \u0b85\u0bae\u0bcd\u0bae\u0ba9\u0bcd \u0bb5\u0bbf\u0ba4\u0bcd\u0ba4\u0bbf\u0baf\u0bbe\u0bb2\u0baf\u0bae\u0bcd", "amenity": "school", "grades": "1 to 5", "name": "V/Nampankulam Sri Muthumari Amman Vidyalayam", "name:ta": "\u0bb5/\u0ba8\u0bbe\u0bae\u0bcd\u0baa\u0ba9\u0bcd\u0b95\u0bc1\u0bb3\u0bae\u0bcd \u0bb8\u0bcd\u0bb0\u0bc0 \u0bae\u0bc1\u0ba4\u0bcd\u0ba4\u0bc1\u0bae\u0bbe\u0bb0\u0bbf \u0b85\u0bae\u0bcd\u0bae\u0ba9\u0bcd \u0bb5\u0bbf\u0ba4\u0bcd\u0ba4\u0bbf\u0baf\u0bbe\u0bb2\u0baf\u0bae\u0bcd"}}, {"type": "node", "id": 5647299299, "lat": 8.8916832, "lon": 80.5956042, "tags": {"addr:city": "Chemamadu", "alt_name": "Chemamadu Unit II GTMS", "alt_name:ta": "\u0b9a\u0bc7\u0bae\u0bbe\u0bae\u0b9f\u0bc1 \u0baf\u0bc1\u0ba9\u0bbf\u0b9f\u0bcd 2 \u0b85\u0ba4\u0b95 \u0baa\u0bbe\u0b9f\u0b9a\u0bbe\u0bb2\u0bc8", "amenity": "school", "grades": "1 to 5", "name": "V/Chemamadu Unit II GTMS", "name:ta": "\u0bb5/\u0b9a\u0bc7\u0bae\u0bbe\u0bae\u0b9f\u0bc1 \u0baf\u0bc1\u0ba9\u0bbf\u0b9f\u0bcd 2 \u0b85\u0ba4\u0b95 \u0baa\u0bbe\u0b9f\u0b9a\u0bbe\u0bb2\u0bc8"}}, {"type": "node", "id": 5648624701, "lat": 8.7840471, "lon": 80.5323993, "tags": {"addr:city": "Etambagaskada", "alt_name": "Atambagaskda Vidyalaya", "alt_name:ta": "\u0b85\u0b9f\u0bcd\u0b9f\u0bae\u0bb9\u0bb8\u0bcd\u0b9f \u0bb5\u0bbf\u0ba4\u0bcd\u0ba4\u0bbf\u0baf\u0bbe\u0bb2\u0baf", "amenity": "school", "grades": "1 to 11", "name": "V/Atambagaskda Vidyalaya", "name:ta": "\u0bb5/\u0b85\u0b9f\u0bcd\u0b9f\u0bae\u0bb9\u0bb8\u0bcd\u0b9f \u0bb5\u0bbf\u0ba4\u0bcd\u0ba4\u0bbf\u0baf\u0bbe\u0bb2\u0baf"}}, {"type": "node", "id": 5656033298, "lat": 9.1706232, "lon": 80.6340945, "tags": {"addr:city": "Periyakulam", "alt_name": "Periyakulam GTMS", "alt_name:ta": "\u0baa\u0bc6\u0bb0\u0bbf\u0baf\u0b95\u0bc1\u0bb3\u0bae\u0bcd \u0b85\u0ba4\u0b95 \u0baa\u0bbe\u0b9f\u0b9a\u0bbe\u0bb2\u0bc8", "amenity": "school", "grades": "1 to 5", "name": "Mu/Periyakulam GTMS", "name:ta": "\u0bae\u0bc1/\u0baa\u0bc6\u0bb0\u0bbf\u0baf\u0b95\u0bc1\u0bb3\u0bae\u0bcd \u0b85\u0ba4\u0b95 \u0baa\u0bbe\u0b9f\u0b9a\u0bbe\u0bb2\u0bc8"}}, {"type": "node", "id": 5656033299, "lat": 9.1521245, "lon": 80.6487671, "tags": {"alt_name": "Oddusuddan HTMS", "alt_name:ta": "\u0b92\u0b9f\u0bcd\u0b9f\u0bc1\u0b9a\u0bc1\u0b9f\u0bcd\u0b9f\u0bbe\u0ba9\u0bcd \u0b87\u0ba4\u0b95 \u0baa\u0bbe\u0b9f\u0b9a\u0bbe\u0bb2\u0bc8", "amenity": "school", "grades": "1 to 5", "name": "Mu/Oddusuddan HTMS", "name:ta": "\u0bae\u0bc1/\u0b92\u0b9f\u0bcd\u0b9f\u0bc1\u0b9a\u0bc1\u0b9f\u0bcd\u0b9f\u0bbe\u0ba9\u0bcd \u0b87\u0ba4\u0b95 \u0baa\u0bbe\u0b9f\u0b9a\u0bbe\u0bb2\u0bc8"}}, {"type": "node", "id": 5656033300, "lat": 9.1630537, "lon": 80.6579741, "tags": {"alt_name": "Oddusuddan Maha Vidyalayam", "alt_name:ta": "\u0b92\u0b9f\u0bcd\u0b9f\u0bc1\u0b9a\u0bc1\u0b9f\u0bcd\u0b9f\u0bbe\u0ba9\u0bcd \u0bae\u0b95\u0bbe \u0bb5\u0bbf\u0ba4\u0bcd\u0ba4\u0bbf\u0baf\u0bbe\u0bb2\u0baf\u0bae\u0bcd", "amenity": "school", "grades": "6-13", "name": "Mu/Oddusuddan Maha Vidyalayam", "name:ta": "\u0bae\u0bc1/\u0b92\u0b9f\u0bcd\u0b9f\u0bc1\u0b9a\u0bc1\u0b9f\u0bcd\u0b9f\u0bbe\u0ba9\u0bcd \u0bae\u0b95\u0bbe \u0bb5\u0bbf\u0ba4\u0bcd\u0ba4\u0bbf\u0baf\u0bbe\u0bb2\u0baf\u0bae\u0bcd", "phone": "0212061717"}}, {"type": "node", "id": 5656033302, "lat": 9.0887952, "lon": 80.6542605, "tags": {"addr:city": "Thanduvan", "alt_name": "Alaikallupooddakulam GTMS", "alt_name:ta": "\u0b85\u0bb2\u0bc8\u0b95\u0bb2\u0bcd\u0bb2\u0bc1\u0baa\u0bcd\u0baa\u0bcb\u0b9f\u0bcd\u0b9f\u0b95\u0bc1\u0bb3\u0bae\u0bcd \u0b85\u0ba4\u0b95 \u0baa\u0bbe\u0b9f\u0b9a\u0bbe\u0bb2\u0bc8", "amenity": "school", "name": "Mu/Alaikallupooddakulam GTMS", "name:ta": "\u0bae\u0bc1/\u0b85\u0bb2\u0bc8\u0b95\u0bb2\u0bcd\u0bb2\u0bc1\u0baa\u0bcd\u0baa\u0bcb\u0b9f\u0bcd\u0b9f\u0b95\u0bc1\u0bb3\u0bae\u0bcd \u0b85\u0ba4\u0b95 \u0baa\u0bbe\u0b9f\u0b9a\u0bbe\u0bb2\u0bc8"}}, {"type": "node", "id": 5656033303, "lat": 9.0802063, "lon": 80.6857789, "tags": {"addr:city": "Palampasi", "alt_name": "Mamadu Palampasi GTMS", "alt_name:ta": "\u0bae\u0bbe\u0bae\u0b9f\u0bc1 \u0baa\u0bb4\u0bae\u0bcd\u0baa\u0bbe\u0b9a\u0bbf \u0b85\u0ba4\u0b95 \u0baa\u0bbe\u0b9f\u0b9a\u0bbe\u0bb2\u0bc8", "amenity": "school", "grades": "1 to 5", "name": "Mu/Mamadu Palampasi GTMS", "name:ta": "\u0bae\u0bc1/\u0bae\u0bbe\u0bae\u0b9f\u0bc1 \u0baa\u0bb4\u0bae\u0bcd\u0baa\u0bbe\u0b9a\u0bbf \u0b85\u0ba4\u0b95 \u0baa\u0bbe\u0b9f\u0b9a\u0bbe\u0bb2\u0bc8"}}, {"type": "node", "id": 5656033304, "lat": 9.0502335, "lon": 80.7054859, "tags": {"addr:city": "Othiyamalai", "alt_name": "Othiyamalai GTMS", "alt_name:ta": "\u0b92\u0ba4\u0bbf\u0baf\u0bae\u0bb2\u0bc8 \u0b85\u0ba4\u0b95 \u0baa\u0bbe\u0b9f\u0b9a\u0bbe\u0bb2\u0bc8", "amenity": "school", "grades": "1 to 8", "name": "Mu/Othiyamalai GTMS", "name:en": "Othiyamalai GTMS", "name:ta": "\u0bae\u0bc1/\u0b92\u0ba4\u0bbf\u0baf\u0bae\u0bb2\u0bc8 \u0b85\u0ba4\u0b95 \u0baa\u0bbe\u0b9f\u0b9a\u0bbe\u0bb2\u0bc8"}}, {"type": "node", "id": 5656033306, "lat": 8.8882187, "lon": 80.5564479, "tags": {"addr:city": "Maligai", "alt_name": "Nochchikulam No 1 JSV", "alt_name:ta": "\u0ba8\u0bca\u0b9a\u0bcd\u0b9a\u0bbf\u0b95\u0bcd\u0b95\u0bc1\u0bb3\u0bae\u0bcd \u0b87\u0bb2 1 \u0baa\u0bbe\u0b9f\u0b9a\u0bbe\u0bb2\u0bc8", "amenity": "school", "grades": "1 to 11", "name": "V/Nochchikulam No 1 JSV", "name:ta": "\u0bb5/\u0ba8\u0bca\u0b9a\u0bcd\u0b9a\u0bbf\u0b95\u0bcd\u0b95\u0bc1\u0bb3\u0bae\u0bcd \u0b87\u0bb2 1 \u0baa\u0bbe\u0b9f\u0b9a\u0bbe\u0bb2\u0bc8"}}, {"type": "node", "id": 5721968952, "lat": 8.8249477, "lon": 80.4307829, "tags": {"amenity": "school", "name": "V/Tharanikkulam Primary School", "name:en": "Tharanikkulam Primary School", "name:si": "\u0dad\u0dbb\u0db1\u0dd2\u0d9a\u0dca\u0d9a\u0dd4\u0dbd\u0db8\u0dca \u0d9a\u0db1\u0dd2\u0dc1\u0dca\u0da9 \u0db4\u0dcf\u0dc3\u0dcf\u0dbd", "name:ta": "\u0ba4\u0bb0\u0ba3\u0bbf\u0b95\u0bcd\u0b95\u0bc1\u0bb3\u0bae\u0bcd \u0b86\u0bb0\u0bae\u0bcd\u0baa\u0baa\u0bcd \u0baa\u0bbe\u0b9f\u0b9a\u0bbe\u0bb2\u0bc8"}}, {"type": "node", "id": 5913321441, "lat": 8.8916251, "lon": 80.4797083}, {"type": "node", "id": 5913321442, "lat": 8.8916728, "lon": 80.4797083}, {"type": "node", "id": 5913321443, "lat": 8.8916728, "lon": 80.4796627}, {"type": "node", "id": 5913321444, "lat": 8.8916251, "lon": 80.4796627}, {"type": "node", "id": 5913400624, "lat": 8.9152635, "lon": 80.4217206}, {"type": "node", "id": 5913400625, "lat": 8.9153352, "lon": 80.4216792}, {"type": "node", "id": 5913400626, "lat": 8.9153629, "lon": 80.421717}, {"type": "node", "id": 5913400627, "lat": 8.9152985, "lon": 80.4216294}, {"type": "node", "id": 5913400628, "lat": 8.9152328, "lon": 80.4216789}, {"type": "node", "id": 5913400629, "lat": 8.9152972, "lon": 80.4217665}, {"type": "node", "id": 5917549942, "lat": 8.9458369, "lon": 80.3923106}, {"type": "node", "id": 5917549943, "lat": 8.9458324, "lon": 80.3923417}, {"type": "node", "id": 5917549944, "lat": 8.9458323, "lon": 80.3923453}, {"type": "node", "id": 5917549945, "lat": 8.9458632, "lon": 80.392347}, {"type": "node", "id": 5917549946, "lat": 8.945865, "lon": 80.3923121}, {"type": "node", "id": 5917549947, "lat": 8.9457927, "lon": 80.3922959}, {"type": "node", "id": 5917549948, "lat": 8.9457905, "lon": 80.3923395}, {"type": "node", "id": 5917549949, "lat": 8.9458376, "lon": 80.3922983}, {"type": "node", "id": 5919932484, "lat": 9.1608569, "lon": 80.6553069}, {"type": "node", "id": 5919932485, "lat": 9.160804, "lon": 80.6553713}, {"type": "node", "id": 5919932486, "lat": 9.161003, "lon": 80.6555834}, {"type": "node", "id": 5919932487, "lat": 9.1610632, "lon": 80.6555258}, {"type": "node", "id": 5942094901, "lat": 8.811095, "lon": 80.5421376}, {"type": "node", "id": 5968284804, "lat": 9.1538328, "lon": 80.6475516}, {"type": "node", "id": 5968284805, "lat": 9.1536779, "lon": 80.6475355}, {"type": "node", "id": 5968284806, "lat": 9.1535932, "lon": 80.6475958}, {"type": "node", "id": 5968284807, "lat": 9.1535998, "lon": 80.6476749}, {"type": "node", "id": 5968284808, "lat": 9.153662, "lon": 80.6477407}, {"type": "node", "id": 5968284809, "lat": 9.1537653, "lon": 80.6478479}, {"type": "node", "id": 5968284810, "lat": 9.1538858, "lon": 80.6478855}, {"type": "node", "id": 5968284811, "lat": 9.1539202, "lon": 80.6476602}, {"type": "node", "id": 6004042433, "lat": 8.7513193, "lon": 80.338423}, {"type": "node", "id": 6004042434, "lat": 8.751428, "lon": 80.3383398}, {"type": "node", "id": 6004042435, "lat": 8.7514253, "lon": 80.3382701}, {"type": "node", "id": 6004042436, "lat": 8.7512318, "lon": 80.3380448}, {"type": "node", "id": 6004042444, "lat": 8.7510568, "lon": 80.3375217}, {"type": "node", "id": 6004042445, "lat": 8.7508527, "lon": 80.3374359}, {"type": "node", "id": 6004042446, "lat": 8.7507228, "lon": 80.3375325}, {"type": "node", "id": 6006645654, "lat": 8.7510542, "lon": 80.3381386}, {"type": "node", "id": 6006645656, "lat": 8.7506804, "lon": 80.3377202}, {"type": "node", "id": 6007855207, "lat": 8.7931159, "lon": 80.5801641, "tags": {"amenity": "school", "name": "V/Mahakachchakodiya GSMS", "name:en": "Mahakachchakodiya GSMS"}}, {"type": "node", "id": 6226734494, "lat": 8.9027221, "lon": 80.456468}, {"type": "node", "id": 6226734495, "lat": 8.9026887, "lon": 80.4565616}, {"type": "node", "id": 6226734496, "lat": 8.9028101, "lon": 80.4566061}, {"type": "node", "id": 6226734497, "lat": 8.9028436, "lon": 80.4565126}, {"type": "node", "id": 6231507968, "lat": 8.9346622, "lon": 80.3971443}, {"type": "node", "id": 6231507969, "lat": 8.9346558, "lon": 80.3971213}, {"type": "node", "id": 6231507970, "lat": 8.9346704, "lon": 80.3971296}, {"type": "node", "id": 6231507971, "lat": 8.9346476, "lon": 80.3971361}, {"type": "node", "id": 6231507972, "lat": 8.9346693, "lon": 80.3971387}, {"type": "node", "id": 6231507973, "lat": 8.9346532, "lon": 80.3971432}, {"type": "node", "id": 6231507974, "lat": 8.9346487, "lon": 80.397127}, {"type": "node", "id": 6231507975, "lat": 8.9346648, "lon": 80.3971224}, {"type": "node", "id": 6231704140, "lat": 8.9366753, "lon": 80.3955756}, {"type": "node", "id": 6231704141, "lat": 8.9367592, "lon": 80.3956835}, {"type": "node", "id": 6231704142, "lat": 8.9368856, "lon": 80.3955828}, {"type": "node", "id": 6231704143, "lat": 8.9368018, "lon": 80.3954749}, {"type": "node", "id": 6231761014, "lat": 8.9488609, "lon": 80.3911119}, {"type": "node", "id": 6231761015, "lat": 8.9487793, "lon": 80.3911394}, {"type": "node", "id": 6231761016, "lat": 8.9487593, "lon": 80.3910784}, {"type": "node", "id": 6231761017, "lat": 8.9488409, "lon": 80.391051}, {"type": "node", "id": 6235739973, "lat": 8.8959059, "lon": 80.510248, "tags": {"amenity": "school", "name": "V/Vedarmakilankulam GTMS"}}, {"type": "node", "id": 6235739974, "lat": 8.8958158, "lon": 80.5103057}, {"type": "node", "id": 6235739975, "lat": 8.8957432, "lon": 80.5102211}, {"type": "node", "id": 6235739976, "lat": 8.8958359, "lon": 80.5101286}, {"type": "node", "id": 6564189099, "lat": 8.7624368, "lon": 80.5008758}, {"type": "node", "id": 6564189100, "lat": 8.7626012, "lon": 80.4980514}, {"type": "node", "id": 6564189101, "lat": 8.7618192, "lon": 80.5008999}, {"type": "node", "id": 6564189102, "lat": 8.7627104, "lon": 80.4988055}, {"type": "node", "id": 6564189103, "lat": 8.7623335, "lon": 80.4977456}, {"type": "node", "id": 6564189104, "lat": 8.7627019, "lon": 80.4983599}, {"type": "node", "id": 6564189105, "lat": 8.7633281, "lon": 80.50027}, {"type": "node", "id": 6564189106, "lat": 8.7597277, "lon": 80.5000552}, {"type": "node", "id": 6564189107, "lat": 8.763336, "lon": 80.5001922}, {"type": "node", "id": 6564189108, "lat": 8.7632963, "lon": 80.5003451}, {"type": "node", "id": 6564189109, "lat": 8.760564, "lon": 80.499544}, {"type": "node", "id": 6564189110, "lat": 8.759682, "lon": 80.5001053}, {"type": "node", "id": 6564189111, "lat": 8.7621346, "lon": 80.5009509}, {"type": "node", "id": 6564189112, "lat": 8.7627422, "lon": 80.4989477}, {"type": "node", "id": 6564189113, "lat": 8.7631372, "lon": 80.4997094}, {"type": "node", "id": 6564189114, "lat": 8.7630815, "lon": 80.5006106}, {"type": "node", "id": 6564189115, "lat": 8.760086, "lon": 80.4998462}, {"type": "node", "id": 6564189116, "lat": 8.7629039, "lon": 80.4993044}, {"type": "node", "id": 7660344417, "lat": 8.8760657, "lon": 80.6604368}, {"type": "node", "id": 7660344418, "lat": 8.875596, "lon": 80.6608723}, {"type": "node", "id": 7660344419, "lat": 8.8760014, "lon": 80.6613203}, {"type": "node", "id": 7660344420, "lat": 8.8764711, "lon": 80.6608848}, {"type": "node", "id": 7745135901, "lat": 9.1618444, "lon": 80.6619443, "tags": {"amenity": "school", "name": "District Agricutural Training Centre Mullaitivu"}}, {"type": "node", "id": 8255246671, "lat": 8.7439892, "lon": 80.494439, "tags": {"highway": "bus_stop", "public_transport": "stop_area"}}, {"type": "node", "id": 8255246673, "lat": 8.7435797, "lon": 80.4944645, "tags": {"highway": "bus_stop", "public_transport": "stop_area"}}, {"type": "node", "id": 8449191340, "lat": 8.8786626, "lon": 80.5051877, "tags": {"highway": "bus_stop"}}, {"type": "node", "id": 8522099115, "lat": 8.9656857, "lon": 80.5255593, "tags": {"highway": "bus_stop", "public_transport": "stop_area"}}, {"type": "node", "id": 8522181717, "lat": 8.9642855, "lon": 80.5253743, "tags": {"highway": "bus_stop", "public_transport": "stop_area"}}, {"type": "node", "id": 8522181726, "lat": 8.9597549, "lon": 80.5237408, "tags": {"highway": "bus_stop", "public_transport": "stop_area"}}, {"type": "node", "id": 8522181728, "lat": 8.9589071, "lon": 80.5235557, "tags": {"highway": "bus_stop", "public_transport": "stop_area"}}, {"type": "node", "id": 8522181737, "lat": 8.9553044, "lon": 80.5222243, "tags": {"highway": "bus_stop", "public_transport": "stop_area"}}, {"type": "node", "id": 8522181738, "lat": 8.9545334, "lon": 80.5220684, "tags": {"highway": "bus_stop", "public_transport": "stop_area"}}, {"type": "node", "id": 8522181746, "lat": 8.9415313, "lon": 80.5179714, "tags": {"highway": "bus_stop", "public_transport": "stop_area"}}, {"type": "node", "id": 8522181748, "lat": 8.9402873, "lon": 80.5175952, "tags": {"highway": "bus_stop", "public_transport": "stop_area"}}, {"type": "node", "id": 8524323781, "lat": 8.9821728, "lon": 80.527508, "tags": {"highway": "bus_stop", "public_transport": "stop_area"}}, {"type": "node", "id": 8524323783, "lat": 8.981537, "lon": 80.5273765, "tags": {"highway": "bus_stop", "public_transport": "stop_area"}}, {"type": "node", "id": 8524323796, "lat": 8.9720934, "lon": 80.526938, "tags": {"highway": "bus_stop", "public_transport": "stop_area"}}, {"type": "node", "id": 8524323798, "lat": 8.9712634, "lon": 80.5268636, "tags": {"highway": "bus_stop", "public_transport": "stop_area"}}, {"type": "node", "id": 8531780775, "lat": 8.9894319, "lon": 80.5275992, "tags": {"highway": "bus_stop", "public_transport": "stop_area"}}, {"type": "node", "id": 8531780777, "lat": 8.9888093, "lon": 80.5277628, "tags": {"highway": "bus_stop", "public_transport": "stop_area"}}, {"type": "node", "id": 8531907363, "lat": 9.0160017, "lon": 80.5244221, "tags": {"highway": "bus_stop", "public_transport": "stop_area"}}, {"type": "node", "id": 8531907365, "lat": 9.014799, "lon": 80.5246702, "tags": {"highway": "bus_stop", "public_transport": "stop_area"}}, {"type": "node", "id": 8531907375, "lat": 9.0076213, "lon": 80.5254936, "tags": {"highway": "bus_stop", "public_transport": "stop_area"}}, {"type": "node", "id": 8531907377, "lat": 9.0069391, "lon": 80.5256693, "tags": {"highway": "bus_stop", "public_transport": "stop_area"}}, {"type": "node", "id": 8531907410, "lat": 8.9976438, "lon": 80.5264579, "tags": {"highway": "bus_stop", "public_transport": "stop_area"}}, {"type": "node", "id": 8531907412, "lat": 8.9970882, "lon": 80.5266108, "tags": {"highway": "bus_stop", "public_transport": "stop_area"}}, {"type": "node", "id": 8544327836, "lat": 9.0332732, "lon": 80.5221181, "tags": {"highway": "bus_stop", "public_transport": "stop_area"}}, {"type": "node", "id": 8544327845, "lat": 9.0232097, "lon": 80.5234625, "tags": {"highway": "bus_stop", "public_transport": "stop_area"}}, {"type": "node", "id": 8544327847, "lat": 9.0223534, "lon": 80.5236644, "tags": {"highway": "bus_stop", "public_transport": "stop_area"}}, {"type": "node", "id": 8544473244, "lat": 9.0514922, "lon": 80.5142847, "tags": {"highway": "bus_stop", "public_transport": "stop_area"}}, {"type": "node", "id": 8544473246, "lat": 9.0504843, "lon": 80.5152355, "tags": {"highway": "bus_stop", "public_transport": "stop_area"}}, {"type": "node", "id": 8544473257, "lat": 9.0452813, "lon": 80.5184253, "tags": {"highway": "bus_stop", "public_transport": "stop_area"}}, {"type": "node", "id": 8544473259, "lat": 9.0444906, "lon": 80.5188377, "tags": {"highway": "bus_stop", "public_transport": "stop_area"}}, {"type": "node", "id": 8548481754, "lat": 9.0614171, "lon": 80.5049157, "tags": {"highway": "bus_stop", "public_transport": "stop_area"}}, {"type": "node", "id": 8548481762, "lat": 9.0565898, "lon": 80.5103137, "tags": {"highway": "bus_stop", "public_transport": "stop_area"}}, {"type": "node", "id": 8554784491, "lat": 9.0960146, "lon": 80.4644211, "tags": {"highway": "bus_stop", "public_transport": "stop_area"}}, {"type": "node", "id": 8554784508, "lat": 9.0869129, "lon": 80.4750708, "tags": {"highway": "bus_stop", "public_transport": "stop_area"}}, {"type": "node", "id": 8554789441, "lat": 9.0729681, "lon": 80.4913665, "tags": {"highway": "bus_stop", "public_transport": "stop_area"}}, {"type": "node", "id": 8554789444, "lat": 9.0723483, "lon": 80.4922758, "tags": {"highway": "bus_stop", "public_transport": "stop_area"}}, {"type": "node", "id": 8554789446, "lat": 9.0693023, "lon": 80.4957117, "tags": {"highway": "bus_stop", "public_transport": "stop_area"}}, {"type": "node", "id": 8558161645, "lat": 9.1051855, "lon": 80.458547, "tags": {"highway": "bus_stop", "public_transport": "stop_area"}}, {"type": "node", "id": 8558224925, "lat": 9.1249315, "lon": 80.448887, "tags": {"highway": "bus_stop", "public_transport": "stop_area"}}, {"type": "node", "id": 8558224928, "lat": 9.1242092, "lon": 80.4492961, "tags": {"highway": "bus_stop", "public_transport": "stop_area"}}, {"type": "node", "id": 8558224933, "lat": 9.1195813, "lon": 80.4514539, "tags": {"highway": "bus_stop", "public_transport": "stop_area"}}, {"type": "node", "id": 8558224944, "lat": 9.1090647, "lon": 80.4565461, "tags": {"highway": "bus_stop", "public_transport": "stop_area"}}, {"type": "node", "id": 8558224947, "lat": 9.1081695, "lon": 80.457104, "tags": {"highway": "bus_stop", "public_transport": "stop_area"}}, {"type": "node", "id": 8558224951, "lat": 9.1059343, "lon": 80.4580743, "tags": {"highway": "bus_stop", "public_transport": "stop_area"}}, {"type": "node", "id": 8560758681, "lat": 9.1464659, "lon": 80.4380938, "tags": {"highway": "bus_stop", "public_transport": "stop_area"}}, {"type": "node", "id": 8560758688, "lat": 9.1401845, "lon": 80.4412307, "tags": {"highway": "bus_stop", "public_transport": "stop_area"}}, {"type": "node", "id": 8560758697, "lat": 9.1347399, "lon": 80.4439518, "tags": {"highway": "bus_stop", "public_transport": "stop_area"}}, {"type": "node", "id": 8560758700, "lat": 9.1338209, "lon": 80.4445714, "tags": {"highway": "bus_stop", "public_transport": "stop_area"}}, {"type": "node", "id": 8560758708, "lat": 9.1284861, "lon": 80.4472455, "tags": {"highway": "bus_stop", "public_transport": "stop_area"}}, {"type": "node", "id": 8560758711, "lat": 9.1269634, "lon": 80.447904, "tags": {"highway": "bus_stop", "public_transport": "stop_area"}}, {"type": "node", "id": 8568720997, "lat": 9.170114, "lon": 80.426107, "tags": {"highway": "bus_stop", "public_transport": "stop_area"}}, {"type": "node", "id": 9768690616, "lat": 8.7464974, "lon": 80.4685541, "tags": {"addr:city": "Koomankulam", "amenity": "school", "name": "sithivinayagar preschool"}}, {"type": "node", "id": 9768782694, "lat": 8.7452509, "lon": 80.4688773, "tags": {"bus": "yes", "highway": "bus_stop", "name": "bus stop", "public_transport": "platform"}}, {"type": "node", "id": 9774144954, "lat": 8.9718707, "lon": 80.5274057, "tags": {"amenity": "school", "name": "V/Puliyankulam.H.C"}}, {"type": "node", "id": 9840503087, "lat": 8.97409, "lon": 80.5261229}, {"type": "node", "id": 9840503088, "lat": 8.974445, "lon": 80.5269187}, {"type": "node", "id": 9840503089, "lat": 8.9750853, "lon": 80.5268738}, {"type": "node", "id": 9840503090, "lat": 8.9753769, "lon": 80.5261421}, {"type": "node", "id": 12925079601, "lat": 9.1283316, "lon": 80.4423419, "tags": {"highway": "bus_stop"}}, {"type": "way", "id": 169929855, "nodes": [1810893231, 2375504462, 1810893234, 1810893236, 1810893238, 1810893231], "tags": {"amenity": "hospital", "name": "Kali Kovil", "religion": "hindu"}}, {"type": "way", "id": 233479635, "nodes": [2418592022, 2418592020, 2418592021, 2418592018, 2418592024, 2418592022], "tags": {"leisure": "park", "name": "Vavuniya Park"}}, {"type": "way", "id": 373008162, "nodes": [3765460434, 3765460436, 3765460435, 3765460437, 3765460434], "tags": {"leisure": "park", "name": "Umamaheswaran Illam"}}, {"type": "way", "id": 389130819, "nodes": [3922926476, 3922926477, 3922926475, 3922926474, 3922926476], "tags": {"addr:city": "Puthukkulam", "amenity": "school", "building": "yes"}}, {"type": "way", "id": 389492423, "nodes": [3926546901, 3926546900, 3926546898, 3926546899, 3926546901], "tags": {"amenity": "school", "name": "Thonikkal RDS Preschool"}}, {"type": "way", "id": 389650160, "nodes": [3928191768, 3928191766, 3928191767, 3928191768], "tags": {"highway": "bus_stop"}}, {"type": "way", "id": 392473375, "nodes": [3956911232, 3956911230, 3956911233, 3956911229, 3956911231, 3956911227, 3956911228, 3956911234, 3956911232], "tags": {"amenity": "hospital", "emergency": "no", "name": "Rural Ayurvedic Hospital", "name:ta": "\u0b95\u0bbf\u0bb0\u0bbe\u0bae \u0b86\u0baf\u0bc1\u0bb3\u0bcd\u0bb5\u0bc7\u0ba4 \u0bb5\u0bc8\u0ba4\u0bcd\u0ba4\u0bbf\u0baf\u0b9a\u0bbe\u0bb2\u0bc8"}}, {"type": "way", "id": 428382772, "nodes": [4274897924, 4274897935, 4274897940, 4274897941, 4274897944, 4274897943, 4274897945, 4274897942, 4274897939, 4274897932, 4274897913, 4274897898, 4274897895, 4274897893, 4274897924], "tags": {"amenity": "school"}}, {"type": "way", "id": 433781269, "nodes": [4322769630, 4322769631, 4322769632, 4322769633, 4322769630], "tags": {"leisure": "park", "name": "Periyarkulam Children park"}}, {"type": "way", "id": 433825390, "nodes": [4323179167, 4323179166, 4323179162, 4323179163, 4323179167], "tags": {"amenity": "school", "building": "yes", "name": "Pre-school ,Periyarkulam"}}, {"type": "way", "id": 433825427, "nodes": [4323178755, 4323178757, 4323178759, 4323178758, 4323178756, 4323178754, 4323178753, 4323178755], "tags": {"amenity": "school", "name": "Ilavenil Pre School"}}, {"type": "way", "id": 522087293, "nodes": [5085764032, 5085764029, 5085764030, 5085764031, 5085764032], "tags": {"amenity": "school", "building": "yes", "office": "government"}}, {"type": "way", "id": 522087294, "nodes": [5085764036, 5085764033, 5085764034, 5085764035, 5085764036], "tags": {"amenity": "school", "building": "yes", "office": "government"}}, {"type": "way", "id": 522087295, "nodes": [5085764040, 5085764037, 5085764038, 5085764039, 5085764040], "tags": {"amenity": "school", "building": "yes", "office": "government"}}, {"type": "way", "id": 522087296, "nodes": [5085764044, 5085764041, 5085764042, 5085764043, 5085764044], "tags": {"amenity": "school", "building": "yes", "office": "government"}}, {"type": "way", "id": 522087297, "nodes": [5085764048, 5085764045, 5085764046, 5085764047, 5085764048], "tags": {"amenity": "school", "building": "yes", "office": "government"}}, {"type": "way", "id": 522087298, "nodes": [5085764052, 5085764049, 5085764050, 5085764051, 5085764052], "tags": {"amenity": "school", "building": "yes", "office": "government"}}, {"type": "way", "id": 522338593, "nodes": [5087667023, 5104990096, 5087667022, 5087667021, 5087666420, 5087666419, 5087666418, 5087666417, 5087666416, 5087667023], "tags": {"addr:city": "Mamaduwa", "addr:district": "Vavuniya", "addr:province": "Northern", "amenity": "hospital", "name": "Mamaduwa Divisional Hospital", "name:ta": "\u0bae\u0bbe\u0bae\u0b9f\u0bc1\u0bb5 \u0baa\u0bbf\u0bb0\u0ba4\u0bc7\u0b9a \u0bb5\u0bc8\u0ba4\u0bcd\u0ba4\u0bbf\u0baf\u0b9a\u0bbe\u0bb2\u0bc8", "phone": "0243244762"}}, {"type": "way", "id": 522338614, "nodes": [5087667115, 5087667112, 5087667113, 5087667114, 5942094901, 5087667115], "tags": {"amenity": "school", "building": "yes", "office": "government"}}, {"type": "way", "id": 522355742, "nodes": [5087787822, 5087787819, 5087787820, 5087787821, 5087787822], "tags": {"amenity": "school", "building": "yes", "office": "government"}}, {"type": "way", "id": 526149941, "nodes": [5117139971, 5171004313, 5117115694, 5171004314, 5117115695, 5117115697, 5117115698, 5117139964, 5117139963, 5117115701, 5117139960, 5119238764, 5119238763, 5117139955, 5117139971], "tags": {"addr:city": "Mamaduwa", "alt_name": "Agrabodi Maha Vidyalaya", "alt_name:ta": "\u0b85\u0b95\u0bb0\u0bcd\u0baa\u0bcb\u0ba4\u0bbf \u0bae\u0b95\u0bbe \u0bb5\u0bbf\u0ba4\u0bcd\u0ba4\u0bbf\u0baf\u0bbe\u0bb2\u0baf", "amenity": "school", "grades": "1 to 11", "name": "V/Agrabodi Maha Vidyalaya", "name:ta": "\u0bb5/\u0b85\u0b95\u0bb0\u0bcd\u0baa\u0bcb\u0ba4\u0bbf \u0bae\u0b95\u0bbe \u0bb5\u0bbf\u0ba4\u0bcd\u0ba4\u0bbf\u0baf\u0bbe\u0bb2\u0baf", "phone": "0245680248"}}, {"type": "way", "id": 528639930, "nodes": [5136892389, 5136892388, 5136892387, 5136892386, 5136892385, 5136892384, 5136892383, 5136892382, 5136892381, 5136892380, 5136892389], "tags": {"amenity": "school", "name": "Karunkalikkulam GTMS"}}, {"type": "way", "id": 626360315, "nodes": [5913321444, 5913321443, 5913321442, 5913321441, 5913321444], "tags": {"amenity": "school", "building": "yes", "name": "Konthakkulam School"}}, {"type": "way", "id": 626370360, "nodes": [5913400629, 5913400624, 5913400628, 5913400627, 5913400625, 5913400626, 5913400629], "tags": {"amenity": "school", "building": "yes", "name": "Pre School Panichchankulam"}}, {"type": "way", "id": 626822508, "nodes": [5917549949, 5917549942, 5917549946, 5917549945, 5917549944, 5917549943, 5917549948, 5917549947, 5917549949], "tags": {"amenity": "hospital", "building": "yes", "name": "Navvy"}}, {"type": "way", "id": 627095877, "nodes": [5919932487, 5919932486, 5919932485, 5919932484, 5919932487], "tags": {"amenity": "hospital", "building": "church", "name": "church", "office": "religion"}}, {"type": "way", "id": 632090613, "nodes": [5968284811, 5968284810, 5968284809, 5968284808, 5968284807, 5968284806, 5968284805, 5968284804, 5968284811], "tags": {"amenity": "school"}}, {"type": "way", "id": 637078328, "nodes": [6004042446, 6006645656, 6006645654, 6004042433, 6004042434, 6004042435, 6004042436, 3933324755, 3933324754, 6004042444, 6004042445, 6004042446], "tags": {"amenity": "school"}}, {"type": "way", "id": 665260924, "nodes": [6226734497, 6226734496, 6226734495, 6226734494, 6226734497], "tags": {"amenity": "school", "building": "yes", "name": "V/Matharpannikankulam GTMS"}}, {"type": "way", "id": 665731937, "nodes": [6231507975, 6231507970, 6231507972, 6231507968, 6231507973, 6231507971, 6231507974, 6231507969, 6231507975], "tags": {"amenity": "school", "building": "yes", "man_made": "water_well", "name": "Pre School Navry"}}, {"type": "way", "id": 665756821, "nodes": [6231704143, 6231704142, 6231704141, 6231704140, 6231704143], "tags": {"amenity": "school", "building": "yes", "name": "Pre School Navvy"}}, {"type": "way", "id": 665764852, "nodes": [6231761017, 6231761014, 6231761015, 6231761016, 6231761017], "tags": {"amenity": "school", "building": "yes", "name": "Pre School Kovilkumchikulam"}}, {"type": "way", "id": 666054393, "nodes": [6235739976, 6235739973, 6235739974, 6235739975, 6235739976], "tags": {"amenity": "school", "building": "yes", "name": "V/Vedarmakilankulam GTMS"}}, {"type": "way", "id": 699018543, "nodes": [6564189110, 6564189101, 6564189111, 6564189099, 6564189114, 6564189108, 6564189105, 6564189107, 6564189113, 6564189116, 6564189112, 6564189102, 6564189104, 6564189100, 6564189103, 6564189109, 6564189115, 6564189106, 6564189110], "tags": {"amenity": "hospital", "contact:website": "http://www.generalhospitalvavuniya.lk", "emergency": "yes", "name": "Vavuniya General Hospital", "wikidata": "Q7917518", "wikipedia": "en:Vavuniya Hospital"}}, {"type": "way", "id": 820374364, "nodes": [7660344420, 7660344419, 7660344418, 7660344417, 7660344420], "tags": {"amenity": "hospital"}}, {"type": "way", "id": 1072534658, "nodes": [9840503087, 9840503088, 9840503089, 9840503090, 9840503087], "tags": {"amenity": "school", "name": "V/Puliyankulam Hindu Primary School", "short_name": "Puliyankulam Hindu Primary School"}}]}